CGNDB ID,Geographical Name,Language,Syllabic Form,Generic Term,Generic Category,Concise Code,Toponymic Feature ID,Latitude,Longitude,Location,Province - Territory,Relevance at Scale,Decision Date,Source
IASNO,16 1/2 Mile Lake,Undetermined,,Lake,Water Feature,LAKE,96b3b559c6cb11d892e2080020a0f4c9,52.7086111,-117.9111111,,Alberta,50000,2002-09-21,Alberta Culture and Tourism
IASKY,3 Channels Area,Undetermined,,Channel,Water Feature,RIV,0cadee42849c20c3720fa00943b2bd5d,56.7513889,-110.5250000,26-89-4-W4,Alberta,50000,1991-09-04,Alberta Culture and Tourism
IASLL,49 Lake,Undetermined,,Lake,Water Feature,LAKE,0cadf192849c20c37fc96b661f70d643,56.3050000,-110.8905556,"21,28-84-6-W4",Alberta,50000,1991-09-04,Alberta Culture and Tourism
IASLJ,51 Lake,Undetermined,,Lake,Water Feature,LAKE,0cadf110849c20c379b76a56fd1654d6,56.3138889,-110.9436111,30-84-6-W4,Alberta,50000,1991-09-04,Alberta Culture and Tourism
IASLM,54 Lake,Undetermined,,Lake,Water Feature,LAKE,0cadf1d3849c20c337cb903525c1ad2c,56.3522222,-110.9894444,2-11-85-7-W4,Alberta,50000,1991-09-04,Alberta Culture and Tourism
IASLK,55 Lake,Undetermined,,Lake,Water Feature,LAKE,0cadf150849c20c317a686a4a08e391a,56.3661111,-110.9938889,14-85-7-W4,Alberta,50000,1991-09-04,Alberta Culture and Tourism
IBACK,ɂejere K'elni Kųe 196I,Undetermined,,Indian Reserve,Administrative Area,IR,82cc9304ee064ae68d45d70858b0ef59,59.5252780,-111.4761110,,Alberta,50000,2009-12-14,Indigenous and Northern Affairs Canada
IASTP,A-H Lake,Undetermined,,Lake,Water Feature,LAKE,0cae0f3a849c20c34e38129276e2a29a,57.7605555,-112.5772222,17-101-16-W4,Alberta,50000,1991-09-23,Alberta Culture and Tourism
IAPUX,Abbeydale,Undetermined,,Urban Community,Populated Place,UNP,52649a39bbe111d892e2080020a0f4c9,51.0500000,-114.9333300,Calgary,Alberta,50000,,Alberta Culture and Tourism
IAPUY,Abbot Pass,Undetermined,,Pass,Terrain Feature,VALL,75133bebba3411d892e2080020a0f4c9,51.3638889,-116.2872222,28-17-W5,Alberta,50000,1952-04-03,Alberta Culture and Tourism
IATZR,Abbot Pass Refuge Cabin National Historic Site of Canada,Undetermined,,National Historic Site,Administrative Area,PARK,73e3204cba3411d892e2080020a0f4c9,51.3636110,-116.2891700,,Alberta,1000000,2001-01-12,Parks Canada
IAPVA,Abbott Creek,Undetermined,,Creek,Water Feature,RIV,0c89a9f1849c20c316cdebb1c251facf,53.9172223,-118.9980556,57-7-W6,Alberta,50000,1947-09-04,Alberta Culture and Tourism
IAPUZ,Abbottsfield,Undetermined,,Urban Community,Populated Place,UNP,526bc62abbe111d892e2080020a0f4c9,53.5666670,-113.3833300,Edmonton,Alberta,50000,,Alberta Culture and Tourism
IAECP,Abee,Undetermined,,Hamlet,Populated Place,UNP,0c841a31849c20c322b15794ef462391,54.2377778,-113.0277778,1-61-21-W4,Alberta,250000,1945-12-08,Alberta Culture and Tourism
IAQVM,Aberdeen Glacier,Undetermined,,Glacier,Ice and Snow Feature,GLAC,8affa514c6cb11d892e2080020a0f4c9,51.3847223,-116.2430556,,Alberta,50000,1985-01-21,Alberta Culture and Tourism
IAPVD,Abilene,Undetermined,,Locality,Populated Place,UNP,0cffd6c5849c20c34f5d9ccee4f349ec,54.1083333,-111.4861111,18-59-10-W4,Alberta,250000,1950-07-06,Alberta Culture and Tourism
IAECR,Abraham Lake,Undetermined,,Lake,Water Feature,LAKE,0c841ad5849c20c30a140ce52972183b,52.2236111,-116.4272222,"37,38-17,18-W5",Alberta,1000000,1975-10-30,Alberta Culture and Tourism
IAPVF,Academy,Undetermined,,Locality,Populated Place,UNP,0c89aa71849c20c3e1968309eed9bb24,50.8566667,-114.0402778,10-22-1-W5,Alberta,250000,1940-01-19,Alberta Culture and Tourism
IAPVH,Acadia,Undetermined,,Former Locality,Populated Place,UNP,c1976744c6cd11d892e2080020a0f4c9,51.2000000,-110.4000000,7-26-3-W4,Alberta,50000,1988-12-31,Alberta Culture and Tourism
IAPVG,Acadia,Undetermined,,Urban Community,Populated Place,UNP,5273674bbbe111d892e2080020a0f4c9,50.9666670,-114.0500000,Calgary,Alberta,50000,,Alberta Culture and Tourism
IAPVI,Acadia Valley,Undetermined,,Hamlet,Populated Place,UNP,0cffd708849c20c34b9349ffcf334414,51.1569445,-110.2097222,27-25-2-W4,Alberta,1000000,1951-11-01,Alberta Culture and Tourism
IAPVJ,Acheson,Undetermined,,Locality,Populated Place,UNP,0d0b0db3849c20c3a3597b3ef475dce7,53.5502778,-113.7747222,4-53-26-W4,Alberta,250000,1974-12-31,Alberta Culture and Tourism
IAPVO,Acme,Undetermined,,Village,Populated Place,VILG,6ba45943d05511d892e2080020a0f4c9,51.4972222,-113.5086111,19-29-25-W4,Alberta,1000000,1995-01-01,Alberta Culture and Tourism
IAECS,Adair Creek,Undetermined,,Creek,Water Feature,RIV,0c841a93849c20c32688774e296c6168,59.0769444,-117.7330556,116-22-W5,Alberta,250000,1944-11-06,Alberta Culture and Tourism
IAPVL,Adair Creek,Undetermined,,Creek,Water Feature,RIV,0c89aaf3849c20c319d368c7d92e2025,49.9744444,-114.1566667,"1-12-1,2-W5",Alberta,250000,1941-12-17,Alberta Culture and Tourism
IAPVM,Adams Creek,Undetermined,,Creek,Water Feature,RIV,0c89aab3849c20c3c27f9c79cc608b0a,53.6911111,-118.5530556,54-4-W6,Alberta,250000,1955-02-02,Alberta Culture and Tourism
IAPVN,Adams Creek,Undetermined,,Creek,Water Feature,RIV,0c89ab3e849c20c33022045ee8b5323c,55.2138889,-115.3472222,9-72-9-W5,Alberta,250000,1945-12-08,Alberta Culture and Tourism
IAPVP,Adams Creek Trail,Undetermined,,Trail,Constructed Feature,ROAD,a13588e7d05411d892e2080020a0f4c9,53.7472223,-118.6916667,"54,55-4,5-W6",Alberta,250000,1980-09-10,Alberta Culture and Tourism
IBACW,Adams Lake,Undetermined,,Lake,Water Feature,LAKE,794f9cfc0a001204176e8e7659e466c6,52.0683333,-114.4847222,"2,3,10-36-4-W5",Alberta,50000,2012-11-19,Alberta Culture and Tourism
IAECT,Adams Landing,Undetermined,,Locality,Populated Place,UNP,0c841b18849c20c366cf45e7f3efe0c3,58.3894444,-115.0769444,108-7-W5,Alberta,250000,1944-07-12,Alberta Culture and Tourism
IAPVQ,Adams Lookout,Undetermined,,Lookout,Terrain Feature,MTN,0c89ab81849c20c322eb0da7529e7ce2,53.7258333,-118.5680556,55-4-W6,Alberta,250000,1955-02-02,Alberta Culture and Tourism
IAPVR,Adamson Lake,Undetermined,,Lake,Water Feature,LAKE,0c89ac04849c20c3dd16e680d56dae09,53.6152778,-112.9258333,53-20-W4,Alberta,250000,1957-08-01,Alberta Culture and Tourism
IAPVS,Adelade Creek,Undetermined,,Creek,Water Feature,RIV,0c89abc2849c20c33f3b624ddfe3c5f5,54.1333330,-119.3500000,59-10-W6,Alberta,250000,1950-05-04,Alberta Culture and Tourism
IAPVT,Aden,Undetermined,,Locality,Populated Place,UNP,0c89ac44849c20c35f5c75963a4fc014,49.0247222,-111.2986111,8-1-10-W4,Alberta,250000,1947-03-13,Alberta Culture and Tourism
IAPVV,Adolphus Creek,Undetermined,,Creek,Water Feature,RIV,0c89ac85849c20c30d6cacae185b4b7d,53.8538889,-119.0633333,56-8-W6,Alberta,50000,1953-03-05,Alberta Culture and Tourism
IAPVW,Adolphus Lake,Undetermined,,Lake,Water Feature,LAKE,0cffd749849c20c3e75796fadcea6ebd,53.1711111,-119.1177778,48-8-W6,Alberta,50000,1956-08-02,Alberta Culture and Tourism
IAPVY,Adrian Lake,Undetermined,,Lake,Water Feature,LAKE,0c89acc6849c20c34fa47bd0b51779c8,53.1141667,-113.1458333,48-22-W4,Alberta,250000,1950-05-02,Alberta Culture and Tourism
IAQPP,Adskwatim Creek,Undetermined,,Creek,Water Feature,RIV,7547925fba3411d892e2080020a0f4c9,57.1852778,-120.0013889,94-13-W6,Alberta,250000,1924-05-06,Alberta Culture and Tourism
IAPWA,Aerial,Undetermined,,Former Post Office,Populated Place,UNP,c1a1ee95c6cd11d892e2080020a0f4c9,51.4180556,-112.6213889,28-19-W4,Alberta,50000,1988-12-31,Alberta Culture and Tourism
IAPWB,Aetna,Undetermined,,Hamlet,Populated Place,UNP,0cffd78a849c20c3026757885415b896,49.1338889,-113.2400000,23-2-25-W4,Alberta,250000,1954-07-08,Alberta Culture and Tourism
IAPWE,Aetna Creek,Undetermined,,Creek,Water Feature,RIV,0c89ad08849c20c36a83f011a04e3892,49.1716666,-113.1930556,31-2-24-W4,Alberta,250000,1942-09-07,Alberta Culture and Tourism
IAPWF,African Lake,Undetermined,,Lake,Water Feature,LAKE,0c89ad89849c20c310a9795ab7055954,54.4344444,-110.1697222,12-63-2-W4,Alberta,250000,1950-07-06,Alberta Culture and Tourism
IAPWG,Afternoon Peak,Undetermined,,Peak,Terrain Feature,MTN,0c89ad49849c20c322d4b0642c422c1d,52.2997222,-116.9863889,"38-21,22-W5",Alberta,250000,1935-03-05,Alberta Culture and Tourism
IAPWH,Agar Lake,Undetermined,,Lake,Water Feature,LAKE,0c89ae0d849c20c3dc107d5efcd13f24,58.2208333,-110.1647222,"106-1,2-W4",Alberta,250000,1954-06-03,Alberta Culture and Tourism
IAPWI,Agatha,Undetermined,,Locality,Populated Place,UNP,0c89adcb849c20c3a9f0402b24366a8c,50.1483334,-111.3038889,4-14-10-W4,Alberta,50000,1928-12-31,Alberta Culture and Tourism
IAPWJ,Aggie,Undetermined,,Locality,Populated Place,UNP,0c89ae4d849c20c36c63f0d1dfc31530,55.4513889,-116.6416667,36-74-18-W5,Alberta,50000,1947-09-04,Alberta Culture and Tourism
IAQFM,Agnes Lake,Undetermined,,Lake,Water Feature,LAKE,0c89d0f1849c20c3188aca5dba2ecb40,55.8077778,-112.5244444,78-17-W4,Alberta,250000,1945-12-08,Alberta Culture and Tourism
IAPWK,Agnes Lake,Undetermined,,Lake,Water Feature,LAKE,0cffd7cd849c20c30a51bcd3eda7a23f,54.9133333,-114.9680556,"26,27-68-7-W5",Alberta,250000,1980-02-28,Alberta Culture and Tourism
IASYF,Aguhway Lake,Undetermined,,Lake,Water Feature,LAKE,0cae332e849c20c32b7f21fe7490ff83,56.9047222,-113.6280556,"21,22-91-23-W4",Alberta,50000,1991-10-17,Alberta Culture and Tourism
IAQFQ,Aiguille Peak,Undetermined,,Peak,Terrain Feature,MTN,6effc09bba3411d892e2080020a0f4c9,51.8050000,-116.6680556,33-19-W5,Alberta,50000,1928-12-31,Alberta Culture and Tourism
IAQFR,Airdrie,Undetermined,,City,Populated Place,CITY,6bbac775d05511d892e2080020a0f4c9,51.2922222,-114.0141667,12-27-1-W5,Alberta,7500000,1995-01-01,Alberta Culture and Tourism
IAQFS,Akamina Lake,Undetermined,,Lake,Water Feature,LAKE,c66fc94ed05211d892e2080020a0f4c9,49.0238889,-114.0347222,11-1-1-W5,Alberta,50000,1972-04-27,Alberta Culture and Tourism
IAQFT,Akamina Pass,Undetermined,,Pass,Terrain Feature,VALL,6f0ba77cba3411d892e2080020a0f4c9,49.0244445,-114.0544444,1-1-W4,Alberta,50000,1950-04-06,Alberta Culture and Tourism
IAQFU,Akasu Hill,Undetermined,,Hill,Terrain Feature,MTN,0c89d179849c20c3df0bc3dcf442b4ec,53.4750000,-111.8416667,10-52-13-W4,Alberta,250000,1941-09-11,Alberta Culture and Tourism
IAQFV,Akasu Lake,Undetermined,,Lake,Water Feature,LAKE,0c89d1ff849c20c3ea5cc6ad2517cf21,53.5094444,-111.8230556,52-13-W4,Alberta,250000,1941-09-11,Alberta Culture and Tourism
IAQFW,Akenside,Undetermined,,Locality,Populated Place,UNP,0c89d1ba849c20c3dfad579637f3a770,53.6022222,-113.2355556,25-53-23-W4,Alberta,250000,1974-12-31,Alberta Culture and Tourism
IATUT,Akinsdale,Undetermined,,Urban Community,Populated Place,UNP,5aba6429bbe111d892e2080020a0f4c9,53.6291670,-113.5916700,St. Albert,Alberta,50000,,Alberta Culture and Tourism
IAQFX,Akuinu River,Undetermined,,River,Water Feature,RIV,6bc5c3f6d05511d892e2080020a0f4c9,54.9025000,-114.3605556,68-3-W5,Alberta,250000,1953-05-07,Alberta Culture and Tourism
IAQFY,Alba Lake,Undetermined,,Lake,Water Feature,LAKE,0c89d24b849c20c34066cc4d316571e4,52.7713889,-110.4347222,"6,7-44-3-W4",Alberta,250000,1951-04-05,Alberta Culture and Tourism
IAQGE,Albert Lake,Undetermined,,Lake,Water Feature,LAKE,0c89d335849c20c3705d732cc0e84012,53.1669444,-110.4500000,"48-3,4-W4",Alberta,250000,1940-05-21,Alberta Culture and Tourism
IAQGG,Albert Park,Undetermined,,Locality,Populated Place,UNP,0c89d3b9849c20c3a397b1455861c5e5,51.0383333,-113.9988889,24-29-W4,Alberta,50000,1955-01-20,Alberta Culture and Tourism
IAQFZ,Alberta,Undetermined,,Province,Administrative Area,PROV,b8ebf793bbe011d892e2080020a0f4c9,54.9916670,-114.3766670,,Alberta,30000000,1905-12-31,Geographical Names Board of Canada Secretariat
IASMB,Alberta Avenue,Undetermined,,Urban Community,Populated Place,UNP,52f93929bbe111d892e2080020a0f4c9,53.5666670,-113.4833300,Edmonton,Alberta,50000,,Alberta Culture and Tourism
IAQGA,Alberta Beach,Undetermined,,Village,Populated Place,VILG,39311475c6ce11d892e2080020a0f4c9,53.6780555,-114.3511111,22-54-3-W5,Alberta,1000000,1999-01-01,Alberta Culture and Tourism
IATST,Alberta Park Industrial,Undetermined,,Urban Community,Populated Place,UNP,59878958bbe111d892e2080020a0f4c9,53.5666670,-113.5972200,Edmonton,Alberta,50000,,Alberta Culture and Tourism
IAQGD,Albertine Creek,Undetermined,,Creek,Water Feature,RIV,0c89d376849c20c3c57115ecbd2728bd,53.7994445,-119.0525000,55-8-W6,Alberta,250000,1953-03-05,Alberta Culture and Tourism
IAQGJ,Albright,Undetermined,,Locality,Populated Place,UNP,0c89d3fa849c20c3b9cd7d4420a1ba19,55.2658333,-119.4972222,29-72-10-W6,Alberta,250000,1947-10-07,Alberta Culture and Tourism
IAQGK,Albright Creek,Undetermined,,Creek,Water Feature,RIV,75bd1085ba3411d892e2080020a0f4c9,55.4869444,-120.0011111,75-13-W6,Alberta,250000,1983-03-31,Alberta Culture and Tourism
IAQGL,Albright Lake,Undetermined,,Lake,Water Feature,LAKE,0c89d43a849c20c362f22030d2c4a5a0,55.4894444,-119.8216667,75-12-W6,Alberta,250000,1947-10-07,Alberta Culture and Tourism
IAQGM,Alcomdale,Undetermined,,Locality,Populated Place,UNP,29e7d01fc6ce11d892e2080020a0f4c9,53.8930556,-113.8380556,5-57-26-W4,Alberta,250000,1951-09-06,Alberta Culture and Tourism
IAQGO,Alcove Mountain,Undetermined,,Mountain,Terrain Feature,MTN,0cffdc37849c20c36cd737b86b9a831f,52.6133333,-118.2311111,42-2-W6,Alberta,50000,1935-03-05,Alberta Culture and Tourism
IAQGN,Alcurve,Undetermined,,Locality,Populated Place,UNP,0c89d47f849c20c36a6259d0d7842797,53.5119444,-110.0666667,27-52-1-W4,Alberta,250000,1940-05-21,Alberta Culture and Tourism
IAQGP,Alder Flats,Undetermined,,Hamlet,Populated Place,UNP,0cffdc79849c20c384c78dbdb838e64f,52.9330556,-114.9569444,4-46-7-W5,Alberta,1000000,1950-05-04,Alberta Culture and Tourism
IATTI,Aldergrove,Undetermined,,Urban Community,Populated Place,UNP,5a098aa7bbe111d892e2080020a0f4c9,53.5166670,-113.5013900,Edmonton,Alberta,50000,,Alberta Culture and Tourism
IAQGQ,Alderson,Undetermined,,Locality,Populated Place,UNP,0c89d4c3849c20c34eef4fedadc343e0,50.2830555,-111.3452778,20-15-10-W4,Alberta,250000,1941-12-07,Alberta Culture and Tourism
IABFL,Alderson Creek,Undetermined,,Creek,Water Feature,RIV,0c82bd1a849c20c3c940b93e7482d5fa,49.0447222,-113.9700000,1-30-W4,Alberta,50000,1943-05-19,Alberta Culture and Tourism
IAQGR,Alderson Lake,Undetermined,,Lake,Water Feature,LAKE,0c89d54f849c20c343ffa48745971017,49.0297222,-113.9761111,1-30-W4,Alberta,50000,1943-05-19,Alberta Culture and Tourism
IAQGT,Aldersyde,Undetermined,,Hamlet,Populated Place,UNP,0c89d590849c20c3a578f954d7562766,50.6761111,-113.8788889,7-20-28-W4,Alberta,250000,1957-05-02,Alberta Culture and Tourism
IAQGZ,Alex Lake,Undetermined,,Lake,Water Feature,LAKE,0c89d656849c20c348bcb29a0c1661ed,56.1150000,-118.3425000,14-82-3-W6,Alberta,250000,1949-04-07,Alberta Culture and Tourism
IATLN,Alexander,Undetermined,,Post Office,Populated Place,UNP,9988a77ec6cb11d892e2080020a0f4c9,53.8033333,-113.9186111,,Alberta,50000,1998-09-09,Alberta Culture and Tourism
IAUBO,Alexander 134,Undetermined,,Indian Reserve,Administrative Area,IR,0118eaf0bbe311d892e2080020a0f4c9,53.8113889,-113.9602778,4-56-27-W4,Alberta,50000,1972-06-01,Indigenous and Northern Affairs Canada
IZAAH,Alexander 134a,Undetermined,,Indian Reserve,Administrative Area,IR,11a6b67bffb311dda89a080020a0f4c9,54.2861500,-116.4500920,,Alberta,50000,2011-08-10,Indigenous and Northern Affairs Canada
IZAAI,Alexander 134b,Undetermined,,Indian Reserve,Administrative Area,IR,1a8ed56dffb311dda89a080020a0f4c9,54.3420082,-114.8120155,,Alberta,50000,2003-11-27,Indigenous and Northern Affairs Canada
IAQMZ,Alexander Gate,Undetermined,,Gate,Constructed Feature,ROAD,89fc65cac6cb11d892e2080020a0f4c9,52.6975000,-111.0927778,15-43-7-W4,Alberta,50000,1981-08-10,Alberta Culture and Tourism
IAQGU,Alexander Island,Undetermined,,Island,Terrain Feature,ISL,0cffdcbb849c20c305455818e9d2911c,57.1472223,-111.6141667,"94-10,11-W4",Alberta,250000,1950-06-02,Alberta Culture and Tourism
IAQGV,Alexander Lake,Undetermined,,Lake,Water Feature,LAKE,0c89d616849c20c356679238b1ce06a0,59.6236111,-110.4802778,"122,123-3,4-W4",Alberta,250000,1929-06-30,Alberta Culture and Tourism
IAQGW,Alexandra Glaciers,Undetermined,,Glaciers,Ice and Snow Feature,GLAC,0c89d5d4849c20c334820fbe91632b6c,51.9852778,-117.1483333,"35-22,23-W5",Alberta,250000,1964-07-06,Alberta Culture and Tourism
IABFM,Alexandra River,Undetermined,,River,Water Feature,RIV,0c82bcd7849c20c3aedbdc43f91a1c15,52.0677778,-116.9297222,36-21-W5,Alberta,250000,1924-03-31,Alberta Culture and Tourism
IATYW,Alexis,Undetermined,,Locality,Populated Place,UNP,a51be956c6cb11d892e2080020a0f4c9,53.7488889,-114.4863889,11-55-4-W5,Alberta,50000,2001-04-06,Alberta Culture and Tourism
IAUBP,Alexis 133,Undetermined,,Indian Reserve,Administrative Area,IR,01267f81bbe311d892e2080020a0f4c9,53.7333334,-114.4833333,10-55-4-W5,Alberta,50000,1997-07-03,Indigenous and Northern Affairs Canada
IAUFN,Alexis Cardinal River 234,Undetermined,,Indian Reserve,Administrative Area,IR,0890b066bbe311d892e2080020a0f4c9,52.8541667,-116.9722222,"44,45-21,22-W5",Alberta,50000,1997-07-03,Indigenous and Northern Affairs Canada
IAUFM,Alexis Elk River 233,Undetermined,,Indian Reserve,Administrative Area,IR,0886c555bbe311d892e2080020a0f4c9,52.9236111,-116.5494444,"45, 46-18-W5",Alberta,50000,1997-07-03,Indigenous and Northern Affairs Canada
IAUBC,Alexis Whitecourt 232,Undetermined,,Indian Reserve,Administrative Area,IR,ffe9e0c4bbe211d892e2080020a0f4c9,54.2250000,-115.8169000,"60,61-12,13-W5",Alberta,50000,1997-07-03,Indigenous and Northern Affairs Canada
IABFG,Alexo,Undetermined,,Locality,Populated Place,UNP,0cff709b849c20c34668ad309d4e2fcb,52.4752778,-115.7830556,27-40-13-W5,Alberta,50000,1955-01-20,Alberta Culture and Tourism
IABFH,Alford Creek,Undetermined,,Creek,Water Feature,RIV,0c82bc52849c20c39799e97bc5c9a214,52.0847222,-114.8805556,13-36-7-W5,Alberta,250000,1950-12-22,Alberta Culture and Tourism
IABFI,Alford Lake,Undetermined,,Lake,Water Feature,LAKE,0c82bc10849c20c3002135bf104dd762,52.0666670,-115.0833300,4-36-8-W5,Alberta,50000,1976-03-12,Alberta Culture and Tourism
IABFJ,Alfred Lake,Undetermined,,Lake,Water Feature,LAKE,0c82bc96849c20c312c30bb28b8d995f,51.4733333,-115.9363889,29-14-W5,Alberta,50000,1965-03-11,Alberta Culture and Tourism
IAECW,Algar Lake,Undetermined,,Lake,Water Feature,LAKE,0c841c08849c20c348a6e1925f4a1635,56.3116667,-112.2922222,84-15-W4,Alberta,250000,1944-10-12,Alberta Culture and Tourism
IAECX,Algar River,Undetermined,,River,Water Feature,RIV,0c841cd1849c20c32d371000a4c771ba,56.5486111,-112.1941667,17-87-14-W4,Alberta,250000,1944-10-12,Alberta Culture and Tourism
IABFN,Alhambra,Undetermined,,Hamlet,Populated Place,UNP,0cff70dd849c20c30eb5f885e7bdca06,52.3430556,-114.6725000,9-39-5-W5,Alberta,250000,1951-07-05,Alberta Culture and Tourism
IABFO,Alice Creek,Undetermined,,Creek,Water Feature,RIV,0c82bd5c849c20c374b019de132b1a08,58.2980556,-113.2086111,107-20-W4,Alberta,1000000,1944-07-12,Alberta Culture and Tourism
IABFQ,Alice Lake,Undetermined,,Lake,Water Feature,LAKE,0c82bd9d849c20c3e6b64241702946e1,53.2372223,-111.5591667,49-11-W4,Alberta,1000000,1941-09-11,Alberta Culture and Tourism
IABFR,Alix,Undetermined,,Village,Populated Place,VILG,7f1bb827d05511d892e2080020a0f4c9,52.3999999,-113.1797221,36-39-23-W4,Alberta,1000000,1995-01-01,Alberta Culture and Tourism
IABFS,Alix Lake,Undetermined,,Lake,Water Feature,LAKE,0c82be34849c20c3e94258107392d8f2,52.3941667,-113.1969444,35-39-23-W4,Alberta,250000,1951-01-17,Alberta Culture and Tourism
IABFT,Alix South Junction,Undetermined,,Locality,Populated Place,UNP,0c82beb7849c20c30ac70aea4015c3c4,52.3700000,-113.2100000,22-39-23-W4,Alberta,250000,1955-11-03,Alberta Culture and Tourism
IABFU,Alkali Creek,Undetermined,,Creek,Water Feature,RIV,0c82be76849c20c3ded42693103cbd1c,50.8638889,-110.4966667,22-4-W4,Alberta,1000000,1941-07-12,Alberta Culture and Tourism
IABFW,Alkali Lake,Undetermined,,Lake,Water Feature,LAKE,0c82bef9849c20c3897d3948a1cf4c25,53.5486111,-111.7666667,"53-12,13-W4",Alberta,250000,1941-09-11,Alberta Culture and Tourism
IABFV,Alkali Lake,Undetermined,,Lake,Water Feature,LAKE,0c82bf3a849c20c32f18104fd2a4d4c2,51.0166670,-112.1833300,24-16-W4,Alberta,250000,1955-01-20,Alberta Culture and Tourism
IABFY,Allan Lake,Undetermined,,Lake,Water Feature,LAKE,0c82bf7b849c20c3c2be84860ddb075d,54.9386111,-116.0619444,69-14-W5,Alberta,250000,1956-11-02,Alberta Culture and Tourism
IABGB,Allan River,Undetermined,,River,Water Feature,RIV,0c82c03f849c20c3e08f10ac5a3d059a,54.9069445,-114.7750000,68-6-W5,Alberta,250000,1945-12-08,Alberta Culture and Tourism
IABGC,Allday Lake,Undetermined,,Lake,Water Feature,LAKE,0c82bffd849c20c3176721bb04120a7b,54.1855556,-111.4530556,16-60-10-W4,Alberta,250000,1950-07-06,Alberta Culture and Tourism
IABGD,Alleman Creek,Undetermined,,Creek,Water Feature,RIV,0c82c0c3849c20c30850a597bd922aad,57.0366666,-118.6041667,93-4-W6,Alberta,250000,1972-04-12,Alberta Culture and Tourism
IAQMM,Allen Bill Pond,Undetermined,,Pond,Water Feature,LAKE,0c89ebaf849c20c35701279a38cb3d76,50.9011111,-114.6863889,30-22-5-W5,Alberta,50000,1983-02-07,Alberta Culture and Tourism
IABGH,Allen Creek,Undetermined,,Creek,Water Feature,RIV,0c82c148849c20c3b5a4eec0f6e782e7,53.8966666,-119.0652778,57-8-W6,Alberta,50000,1953-03-05,Alberta Culture and Tourism
IABGE,Allenby Creek,Undetermined,,Creek,Water Feature,RIV,0c82c081849c20c301f82374e35e90fb,50.9205556,-115.5583333,22-12-W5,Alberta,50000,1957-05-02,Alberta Culture and Tourism
IABGG,Allenby Pass,Undetermined,,Pass,Terrain Feature,VALL,0cff711e849c20c386a4a2580a574d13,50.9647222,-115.5694444,23-12-W5,Alberta,50000,1960-03-03,Alberta Culture and Tourism
IAECZ,Allendale,Undetermined,,Urban Community,Populated Place,UNP,4e8e6476bbe111d892e2080020a0f4c9,53.5083330,-113.5013900,Edmonton,Alberta,50000,,Alberta Culture and Tourism
IABGK,Alliance,Undetermined,,Village,Populated Place,VILG,7f26b4a8d05511d892e2080020a0f4c9,52.4344445,-111.7852778,15-40-13-W4,Alberta,1000000,1995-01-01,Alberta Culture and Tourism
IABGL,Allingham,Undetermined,,Locality,Populated Place,UNP,0c82c1c9849c20c34b8b6fcdb3ee7e01,51.7027778,-113.5952778,34-31-26-W4,Alberta,250000,1955-01-20,Alberta Culture and Tourism
IAUEV,Allison Bay 219,Undetermined,,Indian Reserve,Administrative Area,IR,0766d754bbe311d892e2080020a0f4c9,58.7744445,-111.0366667,112-6-W4,Alberta,50000,1990-01-25,Indigenous and Northern Affairs Canada
IABGM,Allison Creek,Undetermined,,Creek,Water Feature,RIV,0c82c189849c20c3beda0809381d6c6f,49.6250000,-114.5897222,2-8-5-W5,Alberta,250000,1924-03-31,Alberta Culture and Tourism
IABGN,Allison Peak,Undetermined,,Peak,Terrain Feature,MTN,585ff9aaba3411d892e2080020a0f4c9,49.7433333,-114.6463889,9-5-W5,Alberta,250000,1938-05-20,Alberta Culture and Tourism
IABGO,Allsmoke Mountain,Undetermined,,Mountain,Terrain Feature,MTN,0c82c20c849c20c36718a1b1325dbd12,50.7438889,-114.6894444,31-20-5-W5,Alberta,50000,1941-12-17,Alberta Culture and Tourism
IABGP,Allstones Creek,Undetermined,,Creek,Water Feature,RIV,0c82c28e849c20c3bcb928d4c8e479bb,52.2902778,-116.3747222,38-17-W5,Alberta,50000,1933-02-15,Alberta Culture and Tourism
IARAP,Allstones Lake,Undetermined,,Lake,Water Feature,LAKE,0cffe866849c20c32221fa1418f2a1e1,52.3025000,-116.4186111,30-38-17-W5,Alberta,50000,1986-07-28,Alberta Culture and Tourism
IABGQ,Alma Creek,Undetermined,,Creek,Water Feature,RIV,0c82c24e849c20c390fe60fe915f6d7d,53.7536111,-110.4416667,18-55-3-W4,Alberta,50000,1940-05-21,Alberta Culture and Tourism
IABGR,Alma Lake,Undetermined,,Lake,Water Feature,LAKE,0c82c30f849c20c33bc38ecc30e68459,53.7808334,-110.3966667,55-3-W4,Alberta,250000,1940-05-21,Alberta Culture and Tourism
IABGS,Alness,Undetermined,,Locality,Populated Place,UNP,0c82c2cf849c20c34b049f85497b12ab,51.6541667,-111.7313889,13-31-13-W4,Alberta,50000,1951-11-01,Alberta Culture and Tourism
IABGU,Alnus Peak,Undetermined,,Peak,Terrain Feature,MTN,803fa50aba3411d892e2080020a0f4c9,52.4875000,-118.0069444,40-1-W5,Alberta,50000,1935-03-05,Alberta Culture and Tourism
IABGV,Alpen,Undetermined,,Railway Point,Populated Place,UNP,0c82c393849c20c33c76529a48f3056d,54.4252777,-112.9252778,2-63-20-W4,Alberta,250000,1970-07-30,Alberta Culture and Tourism
IABGW,Alpen Siding,Undetermined,,Locality,Populated Place,UNP,0c82c34f849c20c3d7acd16f66bfa3e6,54.4263889,-112.9555556,4-63-20-W4,Alberta,250000,1945-12-08,Alberta Culture and Tourism
IABGX,Alpha Lake,Undetermined,,Lake,Water Feature,LAKE,0c82c416849c20c3c1b2703901eaab1e,53.7727778,-115.2538889,"21,26-55-9-W5",Alberta,50000,1959-07-02,Alberta Culture and Tourism
IABGZ,Alpland Creek,Undetermined,,Creek,Water Feature,RIV,0c82c49e849c20c358efe570a81e2a5c,51.8283333,-116.8936111,33-21-W4,Alberta,50000,1957-05-02,Alberta Culture and Tourism
IABGY,Alpland Creek,Undetermined,,Creek,Water Feature,RIV,0c82c3d3849c20c3903f25837c4febcc,52.8975000,-117.5216667,45-25-W5,Alberta,250000,1947-06-03,Alberta Culture and Tourism
IABHA,Alsike,Undetermined,,Locality,Populated Place,UNP,0c82c45a849c20c35258c44698ce7afe,53.1916667,-114.4638889,36-48-4-W5,Alberta,250000,1950-07-06,Alberta Culture and Tourism
IABHB,Altadore,Undetermined,,Urban Community,Populated Place,UNP,4d6e7666bbe111d892e2080020a0f4c9,51.0166670,-114.1000000,Calgary,Alberta,50000,,Alberta Culture and Tourism
IABHC,Altario,Undetermined,,Hamlet,Populated Place,UNP,0c82c4e0849c20c3e6fd71c790cf3db5,51.9186111,-110.1622222,13-34-2-W4,Alberta,1000000,1951-11-01,Alberta Culture and Tourism
IABHE,Altrude Creek,Undetermined,,Creek,Water Feature,RIV,0cff718f849c20c3198db7917fb5dc6c,51.2575000,-115.9352778,26-14-W5,Alberta,250000,1956-11-02,Alberta Culture and Tourism
IABHF,Altrude Lakes,Undetermined,,Lakes,Water Feature,LAKE,0c82c563849c20c37df1150ab2813c8e,51.2305556,-116.0475000,26-15-W5,Alberta,50000,1952-04-03,Alberta Culture and Tourism
IABHG,Alvena Lake,Undetermined,,Lake,Water Feature,LAKE,0c82c522849c20c30200f7d6b39f69e2,52.6783333,-110.1950000,2-43-2-W4,Alberta,250000,1951-04-05,Alberta Culture and Tourism
IABHH,Amadou Lake,Undetermined,,Lake,Water Feature,LAKE,0c82c5a4849c20c35ea8cd6ff0992cce,55.3711111,-112.9066667,"31,32-73-19-W4",Alberta,250000,1955-07-07,Alberta Culture and Tourism
IABHJ,Amber Mountain,Undetermined,,Mountain,Terrain Feature,MTN,0c82c5ec849c20c38350cbea82d883ce,52.8116667,-117.9052778,44-27-W5,Alberta,50000,1947-06-03,Alberta Culture and Tourism
IAEDA,Amber River,Undetermined,,River,Water Feature,RIV,0c841d30849c20c3c9f4fbb22b474ff2,58.8500000,-118.9150000,113-6-W6,Alberta,1000000,1944-11-06,Alberta Culture and Tourism
IAUCC,Amber River 211,Undetermined,,Indian Reserve,Administrative Area,IR,042603eebbe311d892e2080020a0f4c9,58.8922222,-118.9461111,16-114-6-W6,Alberta,50000,1972-06-01,Indigenous and Northern Affairs Canada
IABHK,Amber Valley,Undetermined,,Locality,Populated Place,UNP,0cff71d1849c20c349fc6cfceebb7b25,54.7327778,-112.9294444,23-66-20-W4,Alberta,250000,1945-12-08,Alberta Culture and Tourism
IABHL,Ambler Mountain,Undetermined,,Mountain,Terrain Feature,MTN,0c82c66d849c20c3dba3edb868b61fb2,53.9302777,-119.2547222,57-9-W6,Alberta,250000,1953-03-05,Alberta Culture and Tourism
IABHM,Amelia,Undetermined,,Locality,Populated Place,UNP,0c82c62d849c20c3b595e147298377f4,53.8913889,-113.0522222,3-57-21-W4,Alberta,250000,1950-05-02,Alberta Culture and Tourism
IABHO,Amesbury,Undetermined,,Locality,Populated Place,UNP,0c82c6af849c20c38392fd6fad07a90e,55.0811111,-112.4972222,26-70-17-W4,Alberta,250000,1945-12-08,Alberta Culture and Tourism
IABHP,Amethyst Lakes,Undetermined,,Lakes,Water Feature,LAKE,0c82c730849c20c39a9cff859f33b1f5,52.7000000,-118.2769444,43-2-W6,Alberta,1000000,1935-03-05,Alberta Culture and Tourism
IABHQ,Amisk,Undetermined,,Village,Populated Place,VILG,7f31b129d05511d892e2080020a0f4c9,52.5655555,-111.0572222,26-41-8-W4,Alberta,1000000,1995-01-01,Alberta Culture and Tourism
IABHR,Amisk Creek,Cree,,Creek,Water Feature,RIV,0c82c7b3849c20c346c3acca28045b65,53.3650000,-112.5380556,34-50-18-W4,Alberta,250000,1950-05-02,Alberta Culture and Tourism
IAIYZ,Amisk Lake,Undetermined,,Lake,Water Feature,LAKE,0c8677b2849c20c356707902984c2e49,54.5936111,-112.6330556,"64,65-18-W4",Alberta,250000,1945-12-08,Alberta Culture and Tourism
IABHS,Amisk River,Cree,,River,Water Feature,RIV,0c82c773849c20c34e8ec71d72986cea,54.4644444,-111.7711111,20-63-12-W4,Alberta,1000000,1950-05-04,Alberta Culture and Tourism
IABHT,Ammonite Creek,Undetermined,,Creek,Water Feature,RIV,0c82c7ff849c20c3f4f2feb2cb0c4877,53.0372223,-117.8252778,47-27-W5,Alberta,50000,1961-12-13,Alberta Culture and Tourism
IAEDB,Amundson,Undetermined,,Railway Point,Populated Place,UNP,0cff935f849c20c3e588fd70f4659a06,54.4211111,-118.3861111,4-63-3-W6,Alberta,250000,1969-05-08,Alberta Culture and Tourism
IABSU,Analta,Undetermined,,Locality,Populated Place,UNP,0c8300d3849c20c3516803b4c7ef7b7b,54.3566667,-113.6269444,11-62-25-W4,Alberta,250000,1945-12-08,Alberta Culture and Tourism
IABSV,Anastasia,Undetermined,,Locality,Populated Place,UNP,0c830192849c20c33790db3afc2a9431,50.7233333,-113.0319444,30-20-22-W4,Alberta,250000,1957-05-02,Alberta Culture and Tourism
IABSY,Ancona,Undetermined,,Locality,Populated Place,UNP,0cff76a8849c20c3f4f8ac226e6ca06f,52.4502778,-115.5869444,23-40-12-W5,Alberta,50000,1955-01-20,Alberta Culture and Tourism
IABSZ,Anderson Creek,Undetermined,,Creek,Water Feature,RIV,0c8302fe849c20c3b2b5e5699cacfb6c,53.3119444,-117.2855556,50-23-W5,Alberta,250000,1944-05-30,Alberta Culture and Tourism
IABTA,Anderson Creek,Undetermined,,Creek,Water Feature,RIV,0c8302b2849c20c34b055de0056b4398,52.7683333,-114.3102778,43-2-W5,Alberta,250000,1955-01-20,Alberta Culture and Tourism
IABTB,Anderson Lake,Undetermined,,Lake,Water Feature,LAKE,0c8303b2849c20c3ab5b97252f59aa19,55.3386112,-119.2441667,73-9-W6,Alberta,250000,1951-09-06,Alberta Culture and Tourism
IABTD,Anderson Peak,Undetermined,,Peak,Terrain Feature,MTN,9cff7ff9d05411d892e2080020a0f4c9,49.1344444,-114.0786111,2-1-W5,Alberta,250000,1928-12-31,Alberta Culture and Tourism
IABTE,Andrew,Undetermined,,Village,Populated Place,VILG,68b639c1d05511d892e2080020a0f4c9,53.8783333,-112.3352778,32-56-16-W4,Alberta,1000000,1995-01-01,Alberta Culture and Tourism
IABTF,Andrew Lake,Undetermined,,Lake,Water Feature,LAKE,0c830439849c20c3d8ba46e23d69618e,59.8933333,-110.1147222,"125,126-1-W4",Alberta,1000000,1929-06-30,Alberta Culture and Tourism
IABTH,Andy Good Peak,Undetermined,,Peak,Terrain Feature,MTN,59932282ba3411d892e2080020a0f4c9,49.5655556,-114.5886111,7-5-W5,Alberta,250000,1962-12-31,Alberta Culture and Tourism
IABTI,Angel Glacier,Undetermined,,Glacier,Ice and Snow Feature,GLAC,0c830479849c20c354bc94d91730834f,52.6766666,-118.0622222,43-1-W6,Alberta,50000,1935-03-05,Alberta Culture and Tourism
IABTK,Angle Lake,Undetermined,,Lake,Water Feature,LAKE,0c830540849c20c3707307fbf70c3c7f,53.7400000,-110.9680556,55-7-W4,Alberta,250000,1940-05-21,Alberta Culture and Tourism
IABTL,Angle Peak,Undetermined,,Peak,Terrain Feature,MTN,0c830611849c20c395c455595fec12a5,52.6100000,-118.2119444,42-2-W6,Alberta,250000,1935-03-05,Alberta Culture and Tourism
IABTM,Angling Lake,Undetermined,,Lake,Water Feature,LAKE,0c830580849c20c3f6ebe3ed71aa52a9,54.1991667,-110.3280556,60-3-W4,Alberta,1000000,1950-07-06,Alberta Culture and Tourism
IABTQ,Ankerton,Undetermined,,Locality,Populated Place,UNP,0c830652849c20c3706a8766b71d84a7,52.7302778,-112.3300000,25-43-17-W4,Alberta,250000,1955-01-20,Alberta Culture and Tourism
IABTS,Anna Lake,Undetermined,,Lake,Water Feature,LAKE,9d0a7c7ad05411d892e2080020a0f4c9,54.7405556,-115.2316667,66-9-W5,Alberta,250000,1957-10-30,Alberta Culture and Tourism
IABTR,Annabel Lake,Undetermined,,Lake,Water Feature,LAKE,0c8306ba849c20c36fcefb48f0a25234,53.5319445,-116.7208333,34-52-19-W5,Alberta,250000,1978-03-21,Alberta Culture and Tourism
IAIZW,Annette Lake,Undetermined,,Lake,Water Feature,LAKE,0c867aef849c20c3b972e3f171de45eb,52.9016667,-118.0475000,44-1-W6,Alberta,50000,1951-02-07,Alberta Culture and Tourism
IABTX,Ansell,Undetermined,,Locality,Populated Place,UNP,0c8307c9849c20c342ccd6fc2947b019,53.5572222,-116.5255556,12-53-18-W5,Alberta,250000,1957-10-03,Alberta Culture and Tourism
IABTY,Ansell Lake,Undetermined,,Lake,Water Feature,LAKE,0cff770f849c20c36683ac5fb57ad7b2,54.5055556,-113.1019444,64-21-W4,Alberta,250000,1952-08-14,Alberta Culture and Tourism
IABUA,Anselmo,Undetermined,,Locality,Populated Place,UNP,0c830815849c20c3a5221461f311a9bd,53.8900000,-115.3888889,2-57-10-W5,Alberta,250000,1950-06-02,Alberta Culture and Tourism
IABUC,Ante Creek,Undetermined,,Creek,Water Feature,RIV,0c830861849c20c3c5ba4fb9ee0c8b97,54.7688889,-117.6869444,67-25-W5,Alberta,250000,1956-11-02,Alberta Culture and Tourism
IAALC,Antelope Butte,Undetermined,,Butte,Terrain Feature,MTN,0c829ed0849c20c39bec791d2bb095a6,49.7702778,-114.2088889,28-9-2-W5M,Alberta,250000,1982-07-21,Alberta Culture and Tourism
IARAQ,Antelope Hills,Undetermined,,Hills,Terrain Feature,MTN,0c89f9c2849c20c37121252b5031dc98,51.7497222,-111.9283333,"15,16,17,20,21-32-14-W4",Alberta,50000,1986-03-06,Alberta Culture and Tourism
IABUD,Antelope Lake,Undetermined,,Lake,Water Feature,LAKE,0c8308ed849c20c36abf4de98133de42,51.6694444,-111.2491667,"31,32-9-W4",Alberta,250000,1951-11-01,Alberta Culture and Tourism
IABUE,Antelope Lakes,Undetermined,,Lakes,Water Feature,LAKE,0c8308a2849c20c313eeb3f246e58df1,51.2863889,-112.2397222,27-16-W4,Alberta,250000,1955-01-20,Alberta Culture and Tourism
IABUF,Anthony Creek,Undetermined,,Creek,Water Feature,RIV,0cff7750849c20c340a0c0f56b719eca,53.6019444,-118.9438889,53-7-W6,Alberta,50000,1955-02-02,Alberta Culture and Tourism
IABUG,Anthozoan Mountain,Undetermined,,Mountain,Terrain Feature,MTN,0c83092f849c20c307020921019e5e44,51.4627778,-116.0275000,"29-15,16-W5",Alberta,50000,1928-12-31,Alberta Culture and Tourism
IABUH,Anthracite,Undetermined,,Locality,Populated Place,UNP,0c8309f9849c20c3253572ee1faadf49,51.1925000,-115.4938889,5-26-11-W5,Alberta,250000,1956-11-02,Alberta Culture and Tourism
IABUI,Antler Creek,Undetermined,,Creek,Water Feature,RIV,0c83096f849c20c36cdfef80f730fda6,53.2122222,-117.3280556,8-49-23-W5,Alberta,250000,1923-02-12,Alberta Culture and Tourism
IABUJ,Antler Hill,Undetermined,,Hill,Terrain Feature,MTN,0c830abb849c20c3c8d0270eb627a6df,52.0630556,-113.8933333,36-28-W4,Alberta,250000,1937-06-01,Alberta Culture and Tourism
IABUK,Antler Lake,Undetermined,,Lake,Water Feature,LAKE,0c830a3c849c20c3d39e80f20f8b8f0e,53.4969444,-112.9694444,52-21-W4,Alberta,250000,1950-05-02,Alberta Culture and Tourism
IASVM,Antler Lake,Undetermined,,Lake,Water Feature,LAKE,0cae1cd6849c20c37cb58552c735ade1,57.5488889,-113.3777778,32-98-21-W4,Alberta,50000,1991-10-03,Alberta Culture and Tourism
IASZX,Antler Lakes,Undetermined,,Lakes,Water Feature,LAKE,986f482cc6cb11d892e2080020a0f4c9,52.7505556,-117.8172222,"15,16-46-25",Alberta,50000,1993-12-10,Alberta Culture and Tourism
IABUL,Antler Mountain,Undetermined,,Mountain,Terrain Feature,MTN,0c830b5c849c20c342d44e2d3568b035,52.7588889,-117.8458333,43-27-W5,Alberta,50000,1947-06-03,Alberta Culture and Tourism
IABUM,Antoine Lake,Undetermined,,Lake,Water Feature,LAKE,0cff7810849c20c3eb4f9d9b02592f08,54.7672223,-112.0877778,"66,67-14-W4",Alberta,250000,1945-12-08,Alberta Culture and Tourism
IABUO,Anton Lake,Undetermined,,Locality,Populated Place,UNP,0cff7852849c20c3fc6b47e773eb3501,54.1530556,-113.3888889,4-60-23-W4,Alberta,250000,1952-01-17,Alberta Culture and Tourism
IABUN,Antonio,Undetermined,,Locality,Populated Place,UNP,0c830bb1849c20c32de082c4cb3fc134,49.8211111,-111.7941667,14-10-14-W4,Alberta,50000,1947-03-13,Alberta Culture and Tourism
IABUP,Antross,Undetermined,,Locality,Populated Place,UNP,0c830c3d849c20c3965efaf88617a9d2,53.0766667,-114.5136111,22-47-4-W5,Alberta,50000,1950-07-06,Alberta Culture and Tourism
IABUQ,Anzac,Undetermined,,Hamlet,Populated Place,UNP,0c830bf2849c20c30ef9a204bcee7562,56.4486111,-111.0352778,9-86-7-W4,Alberta,1000000,1944-12-09,Alberta Culture and Tourism
IABUR,Apetowun Creek,Undetermined,,Creek,Water Feature,RIV,0cff78e4849c20c3ee91f5742c4fac7c,53.6436111,-117.2616667,12-54-23-W5,Alberta,250000,1946-09-18,Alberta Culture and Tourism
IABUS,Apex Mountain,Undetermined,,Mountain,Terrain Feature,MTN,0c830c7e849c20c3351e96878765ad57,52.2227778,-117.8133333,37-27-W5,Alberta,250000,1935-03-05,Alberta Culture and Tourism
IABUT,Apparition Mountain,Undetermined,,Mountain,Terrain Feature,MTN,0c830d21849c20c3224c60808baf1a3a,51.3675000,-115.4583333,28-11-W5,Alberta,250000,1971-03-15,Alberta Culture and Tourism
IATLV,Applewood Park,Undetermined,,Urban Community,Populated Place,UNP,536b34e7bbe111d892e2080020a0f4c9,51.0430560,-113.9250000,Calgary,Alberta,50000,,Alberta Culture and Tourism
IARAR,Appleyard Coulee,Undetermined,,Coulee,Terrain Feature,VALL,0cffe8a8849c20c383b6613303c04e3b,51.4722222,-113.0286111,4-29-22-W4,Alberta,250000,1986-03-06,Alberta Culture and Tourism
IABUU,Aquila Mountain,Undetermined,,Mountain,Terrain Feature,MTN,0c830cdf849c20c3386ea6d72e373559,52.7366667,-118.1094444,43-1-W6,Alberta,250000,1935-03-05,Alberta Culture and Tourism
IATLW,Arbour Lake,Undetermined,,Urban Community,Populated Place,UNP,53745ca8bbe111d892e2080020a0f4c9,51.1347220,-114.2027800,,Alberta,50000,,Alberta Culture and Tourism
IABUV,Arcadia,Undetermined,,Locality,Populated Place,UNP,0cff7925849c20c389506d6bd5626dfe,55.4005556,-116.1280556,8-74-14-W5,Alberta,250000,1947-09-04,Alberta Culture and Tourism
IABUW,Arcadia Creek,Undetermined,,Creek,Water Feature,RIV,0c830d61849c20c30d9624844b0d0125,55.4305556,-116.0777778,74-14-W5,Alberta,250000,1947-09-04,Alberta Culture and Tourism
IABUX,Arcand Lake,Undetermined,,Lake,Water Feature,LAKE,0c830e1d849c20c3e787784b2b76a76d,53.1061111,-110.7875000,48-6-W4,Alberta,250000,1955-07-07,Alberta Culture and Tourism
IACIH,Arch Lake,Undetermined,,Lake,Water Feature,LAKE,0c8346df849c20c341b67521d7376ba7,59.8705556,-110.6300000,125-4-W4,Alberta,250000,1929-06-30,Alberta Culture and Tourism
IABUY,Archer Creek,Undetermined,,Creek,Water Feature,RIV,0c830ddd849c20c3f20efc4d3774ecbb,58.0791667,-110.6208333,104-4-W4,Alberta,250000,1954-06-03,Alberta Culture and Tourism
IABUZ,Archer Island,Undetermined,,Island,Terrain Feature,ISL,0c830f26849c20c38e65be42be672eaa,53.6736111,-112.8358333,54-20-W4,Alberta,50000,1957-08-01,Alberta Culture and Tourism
IABVA,Archer Lake,Undetermined,,Lake,Water Feature,LAKE,0c830eaa849c20c3fa06ec56fba84adf,58.1130556,-110.3405556,"105-2,3-W4",Alberta,250000,1954-06-03,Alberta Culture and Tourism
IABVB,Archie Hill,Undetermined,,Hill,Terrain Feature,MTN,0c83100d849c20c3ba33082664820ba6,52.7444445,-111.1019444,43-8-W4,Alberta,50000,1954-09-02,Alberta Culture and Tourism
IABVC,Archie Lake,Undetermined,,Lake,Water Feature,LAKE,0c830fcc849c20c3faea57fe36f10ce1,54.5063889,-113.0788889,64-21-W4,Alberta,250000,1952-08-14,Alberta Culture and Tourism
IABVD,Archie Lake,Undetermined,,Lake,Water Feature,LAKE,0c831053849c20c3fb3a2a2a423a9bc8,54.6877777,-115.0775000,66-8-W5,Alberta,250000,1958-01-16,Alberta Culture and Tourism
IACIJ,Arctomys Creek,Undetermined,,Creek,Water Feature,RIV,0c834763849c20c349ed62c5cebee448,51.9933333,-116.8147222,35-20-W5,Alberta,250000,1924-03-31,Alberta Culture and Tourism
IACIK,Arctomys Peak,Undetermined,,Peak,Terrain Feature,MTN,0c83471f849c20c3297985ecde74c824,51.9333333,-116.9833333,34-22-W5,Alberta,50000,1959-04-03,Alberta Culture and Tourism
IACIL,Arcturus Peak,Undetermined,,Peak,Terrain Feature,MTN,0c8347e4849c20c3bcc469951957b8e0,53.4486111,-118.6600000,51-5-W6,Alberta,250000,1956-08-02,Alberta Culture and Tourism
IATLA,Ardennes Peak,Undetermined,,Peak,Terrain Feature,MTN,0cf4ece7849c20c34a60d009a270b3d8,52.0413889,-116.3588889,35-17-W5,Alberta,50000,1997-09-09,Alberta Culture and Tourism
IACIM,Ardenode,Undetermined,,Locality,Populated Place,UNP,0c8347a4849c20c311e803d62b4bf525,51.1444444,-113.4236111,21-25-25-W4,Alberta,250000,1955-01-20,Alberta Culture and Tourism
IADNH,Ardens Slough,Undetermined,,Slough,Water Feature,LAKE,0c83cf3b849c20c352344626da97faa7,58.8963889,-111.4658333,114-9-W4,Alberta,250000,1968-04-02,Alberta Culture and Tourism
IACIN,Ardenville,Undetermined,,Locality,Populated Place,UNP,0c834877849c20c3902e8b1104b4a607,49.5450000,-113.4586111,10-7-26-W4,Alberta,250000,1957-05-02,Alberta Culture and Tourism
IACIO,Ardley,Undetermined,,Locality,Populated Place,UNP,0c834836849c20c3d1bd14a1611e87be,52.2613889,-113.2275000,16-38-23-W4,Alberta,250000,1951-01-17,Alberta Culture and Tourism
IACIP,Ardmore,Undetermined,,Hamlet,Populated Place,UNP,0cff8026849c20c3c59c83ea6844533b,54.3319444,-110.4827778,1-62-4-W4,Alberta,1000000,1950-07-06,Alberta Culture and Tourism
IACIQ,Ardrossan,Undetermined,,Hamlet,Populated Place,UNP,0c8348b7849c20c3cad26cf989d38956,53.5522222,-113.1438889,2-53-22-W4,Alberta,250000,1958-12-31,Alberta Culture and Tourism
IACIS,Argentia Beach,Undetermined,,Summer Village,Populated Place,VILG,820d8028d05511d892e2080020a0f4c9,53.0536111,-114.0163889,"13,14-47-1-W5",Alberta,50000,1967-01-01,Alberta Culture and Tourism
IATQU,Argyll,Undetermined,,Urban Community,Populated Place,UNP,57d1e9e6bbe111d892e2080020a0f4c9,53.5027780,-113.4597200,Edmonton,Alberta,50000,,Alberta Culture and Tourism
IACIV,Aries Peak,Undetermined,,Peak,Terrain Feature,MTN,59b41803ba3411d892e2080020a0f4c9,51.7872222,-116.6447222,32-19-W5,Alberta,50000,1924-03-31,Alberta Culture and Tourism
IACJA,Arm Lake,Undetermined,,Lake,Water Feature,LAKE,0c834afe849c20c382429e346ee95301,52.7463889,-110.5994444,36-43-5-W4,Alberta,250000,1951-04-05,Alberta Culture and Tourism
IACIW,Armada,Undetermined,,Locality,Populated Place,UNP,0c834975849c20c3dac90db5ae18925b,50.4138889,-112.7536111,12-17-21-W4,Alberta,250000,1957-05-02,Alberta Culture and Tourism
IACIY,Armena,Undetermined,,Locality,Populated Place,UNP,0c834abc849c20c3fcc1555f05bd017e,53.1225000,-112.9488889,12-48-21-W4,Alberta,250000,1950-05-02,Alberta Culture and Tourism
IATBL,Armitage's Lake,Undetermined,,Lake,Water Feature,LAKE,0cb1a086849c20c310c713744516b7e5,51.2833333,-110.4116667,"6,7-27-3-W4",Alberta,250000,1992-01-22,Alberta Culture and Tourism
IAQNA,Armstrong Hill,Undetermined,,Hill,Terrain Feature,MTN,9bdfb715c6cb11d892e2080020a0f4c9,52.8250000,-111.0925000,"27,28-44-8-W4",Alberta,50000,1981-08-10,Alberta Culture and Tourism
IACJB,Armstrong Industrial,Undetermined,,Urban Community,Populated Place,UNP,4dd1a411bbe111d892e2080020a0f4c9,53.5666670,-113.6166700,Edmonton,Alberta,50000,,Alberta Culture and Tourism
IADNI,Armstrong Lake,Undetermined,,Lake,Water Feature,LAKE,0c83cfc0849c20c3bf4cb6af7a97a201,54.3894444,-113.6438889,62-25-W4,Alberta,250000,1945-12-08,Alberta Culture and Tourism
IAQNB,Armstrong Spring,Undetermined,,Spring,Water Feature,SPRG,9be9a226c6cb11d892e2080020a0f4c9,52.8236111,-111.0583333,26-44-8-W4,Alberta,50000,1981-08-10,Alberta Culture and Tourism
IACJD,Arnault Lake,Undetermined,,Lake,Water Feature,LAKE,0c834b8c849c20c3c6a3afa03b2509da,53.7050000,-114.7361111,"31-54-5,6-W5",Alberta,250000,1950-04-06,Alberta Culture and Tourism
IACJE,Arneson,Undetermined,,Locality,Populated Place,UNP,0c834b4b849c20c3e40b3138c5194d9e,51.1866667,-110.0750000,4-26-1-W4,Alberta,50000,1951-11-01,Alberta Culture and Tourism
IADNJ,Arnica Lake,Undetermined,,Lake,Water Feature,LAKE,0c83cf7f849c20c3a9c6b3be2f576a8d,51.2213889,-115.9969444,26-15-W5,Alberta,50000,1959-05-07,Alberta Culture and Tourism
IACJF,Arris Mountain,Undetermined,,Mountain,Terrain Feature,MTN,0c834bfa849c20c34c463356ee9546c2,52.7805556,-118.2583333,44-2-W6,Alberta,250000,1951-02-07,Alberta Culture and Tourism
IACJH,Arrowhead Lake,Undetermined,,Lake,Water Feature,LAKE,0c834c3c849c20c3357f3e1ec445769b,52.6358334,-118.2297222,42-2-W6,Alberta,50000,1935-03-05,Alberta Culture and Tourism
IACJG,Arrowhead Lake,Undetermined,,Lake,Water Feature,LAKE,0cff8067849c20c33b80305035da7b0d,59.6855556,-113.6294444,123-22-W4,Alberta,1000000,1955-06-02,Alberta Culture and Tourism
IADNK,Arrowsmith Coulee,Undetermined,,Coulee,Terrain Feature,VALL,0c83d043849c20c374de051d478a8294,49.9355556,-112.5091667,27-11-19-W4,Alberta,50000,1967-01-05,Alberta Culture and Tourism
IACJI,Arrowwood,Undetermined,,Village,Populated Place,VILG,68d8b5e4d05511d892e2080020a0f4c9,50.7394444,-113.1483332,32-20-23-W4,Alberta,1000000,1995-01-01,Alberta Culture and Tourism
IACJK,Arthur Lake,Undetermined,,Lake,Water Feature,LAKE,0c834c7d849c20c388142a570a4b7875,53.7647222,-114.6488889,22-55-5-W5,Alberta,250000,1950-04-06,Alberta Culture and Tourism
IACJL,Arthur Lake,Undetermined,,Lake,Water Feature,LAKE,0c834cdc849c20c368849c9f53016301,54.5316666,-113.1533333,64-21-W4,Alberta,250000,1952-08-14,Alberta Culture and Tourism
IACJN,Arty Hill,Undetermined,,Hill,Terrain Feature,MTN,0c834d97849c20c34af235c74a1ef574,52.7558333,-111.0933333,44-8-W4,Alberta,250000,1954-09-02,Alberta Culture and Tourism
IACJO,Arvilla,Undetermined,,Locality,Populated Place,UNP,0c834d55849c20c3764b3c8c71af726d,53.9916666,-114.0025000,12-58-1-W5,Alberta,250000,1950-04-06,Alberta Culture and Tourism
IACIR,Arête Mountain,Undetermined,,Mountain,Terrain Feature,MTN,0c834912849c20c37ea36f49b3788147,52.4747222,-116.9458333,40-21-W5,Alberta,250000,1956-08-02,Alberta Culture and Tourism
IACJR,Ashburner Creek,Undetermined,,Creek,Water Feature,RIV,0c834f40849c20c3f5118c3b22a96223,52.7511111,-116.5352778,43-18-W5,Alberta,50000,1939-12-12,Alberta Culture and Tourism
IACJS,Ashlar Creek,Undetermined,,Creek,Water Feature,RIV,0c834ebd849c20c3e35be5bed3861f73,53.2044444,-117.8433333,49-27-W5,Alberta,250000,1960-07-07,Alberta Culture and Tourism
IACJT,Ashlar Ridge,Undetermined,,Ridge,Terrain Feature,MTN,0c835020849c20c35257b1133683c9bd,53.1727777,-117.8050000,"48-26,27-W5",Alberta,250000,1956-08-02,Alberta Culture and Tourism
IACJU,Ashmont,Undetermined,,Hamlet,Populated Place,UNP,0c834f81849c20c3292b1bc987533a96,54.1291666,-111.5680556,27-59-11-W4,Alberta,1000000,1950-04-06,Alberta Culture and Tourism
IACJV,Ashton Lake,Undetermined,,Lake,Water Feature,LAKE,0c835060849c20c3d98ca5db6a8b56b6,59.8425000,-110.4069444,"124,125-3-W4",Alberta,250000,1929-06-30,Alberta Culture and Tourism
IACJP,Aspen Beach,Undetermined,,Railway Point,Populated Place,UNP,2844a748c6ce11d892e2080020a0f4c9,52.4613889,-113.9386111,22-40-28-W4,Alberta,50000,1937-06-01,Alberta Culture and Tourism
IACJX,Aspen Beach Provincial Park,Undetermined,,Provincial Park,Administrative Area,PARK,0c8350a0849c20c3a05a68dbbdad1988,52.4622222,-113.9766667,40-28-W4,Alberta,1000000,1979-12-31,Alberta Culture and Tourism
IATPB,Aspen Gardens,Undetermined,,Urban Community,Populated Place,UNP,56374d89bbe111d892e2080020a0f4c9,53.4750000,-113.5444400,Edmonton,Alberta,50000,,Alberta Culture and Tourism
IACJQ,Asphalt Creek,Undetermined,,Creek,Water Feature,RIV,0c834dd9849c20c39795e3eccbe09b36,57.5383333,-111.6311111,98-10-W4,Alberta,250000,1950-06-02,Alberta Culture and Tourism
IADNL,Asplund Creek,Undetermined,,Creek,Water Feature,RIV,0c83d001849c20c377b4fb17556d0767,54.9258333,-117.2186111,25-68-22-W5,Alberta,250000,1960-06-09,Alberta Culture and Tourism
IACKA,Assineau,Undetermined,,Locality,Populated Place,UNP,0c835134849c20c3c34cdf9d4da623cc,55.3744445,-115.1911111,32-73-8-W5,Alberta,250000,1945-12-08,Alberta Culture and Tourism
IACKB,Assineau River,Undetermined,,River,Water Feature,RIV,0c8351cd849c20c32d313c28a3fd0ee5,55.3900000,-115.1961111,5-4-8-W5,Alberta,250000,1945-12-08,Alberta Culture and Tourism
IAUDH,Assineau River 150F,Undetermined,,Indian Reserve,Administrative Area,IR,055e840dbbe311d892e2080020a0f4c9,55.3872222,-115.1891667,5-74-8-W5,Alberta,50000,1972-06-01,Indigenous and Northern Affairs Canada
IACKD,Assiniboine Pass,Undetermined,,Pass,Terrain Feature,VALL,7aba8813ba3411d892e2080020a0f4c9,50.9263889,-115.6088889,23-12-W5,Alberta,50000,1960-03-03,Alberta Culture and Tourism
IACKE,Association Peak,Undetermined,,Peak,Terrain Feature,MTN,0c835271849c20c387c221692b74b8e2,51.1805556,-115.1261111,36-25-9-W5,Alberta,50000,1967-03-17,Alberta Culture and Tourism
IAAQB,Assumption,Undetermined,,Hamlet,Populated Place,UNP,0eb8b178ca0211d892e2080020a0f4c9,58.6994444,-118.6872222,1-112-5-W6,Alberta,7500000,1979-06-08,Alberta Culture and Tourism
IACKF,Aster Creek,Undetermined,,Creek,Water Feature,RIV,0c835304849c20c3f57feb5f25aed131,50.5863889,-115.2016667,19-9-W5,Alberta,50000,1957-05-02,Alberta Culture and Tourism
IACKG,Aster Lake,Undetermined,,Lake,Water Feature,LAKE,0c8352b2849c20c3e03cce2726939d26,50.5777777,-115.2108333,19-9-W5,Alberta,50000,1957-05-02,Alberta Culture and Tourism
IACKI,Astoria Pass,Undetermined,,Pass,Terrain Feature,VALL,0c835344849c20c33a58bee1ffa88f04,52.7075000,-118.1425000,43-12-W6,Alberta,50000,1935-03-05,Alberta Culture and Tourism
IACKJ,Astoria River,Undetermined,,River,Water Feature,RIV,0c8353da849c20c35ff598a0e1281c2e,52.7986111,-118.0200000,44-1-W6,Alberta,250000,1951-02-07,Alberta Culture and Tourism
IACKK,Astotin Creek,Undetermined,,Creek,Water Feature,RIV,0c83539a849c20c3bbb7c3fe4dd8a2a3,53.8530555,-112.9413889,20-56-20-W4,Alberta,250000,1950-05-02,Alberta Culture and Tourism
IACKL,Astotin Lake,Cree,,Lake,Water Feature,LAKE,0c83541b849c20c305cb276780dd0ea3,53.6819444,-112.8533333,54-20-W4,Alberta,250000,1950-05-02,Alberta Culture and Tourism
IARFF,Athabasca,Undetermined,,Town,Populated Place,TOWN,7f0549f5d05511d892e2080020a0f4c9,54.7166666,-113.2841667,16-66-22-W4,Alberta,7500000,1995-01-01,Alberta Culture and Tourism
IACKN,Athabasca Falls,Undetermined,,Falls,Water Feature,FALL,0c8354c6849c20c38d1fa30de5ce6118,52.6644444,-117.8833333,4-27-W5,Alberta,1000000,1956-08-02,Alberta Culture and Tourism
IACKO,Athabasca Glacier,Undetermined,,Glacier,Ice and Snow Feature,GLAC,0cff80eb849c20c3a2340e56a2447f1d,52.1986111,-117.2436111,37-23-W5,Alberta,250000,1948-12-02,Alberta Culture and Tourism
IARYO,Athabasca Landing Provincial Historic Site (Undeveloped),Undetermined,,Provincial Historic Site,Administrative Area,PARK,0cfff2c2849c20c3cb7e788429cc4b0a,54.7166670,-113.2833300,20-66-22-W4,Alberta,1000000,1988-02-29,Alberta Culture and Tourism
IACKQ,Athabasca Pass,Undetermined,,Pass,Terrain Feature,VALL,59f4ca85ba3411d892e2080020a0f4c9,52.3822222,-118.1900000,39-2-W6,Alberta,50000,1953-06-04,Alberta Culture and Tourism
IATZT,Athabasca Pass National Historic Site of Canada,Undetermined,,National Historic Site,Administrative Area,PARK,73fdad2dba3411d892e2080020a0f4c9,52.3833330,-118.1888900,39-2-W6,Alberta,1000000,2001-01-12,Parks Canada
IAQZZ,Athabasca River,Undetermined,,River,Water Feature,RIV,6fda6935ba3411d892e2080020a0f4c9,58.6666667,-110.8333333,,Alberta,5000000,1948-12-30,Alberta Culture and Tourism
IATTD,Athlone,Undetermined,,Urban Community,Populated Place,UNP,59e7d1d2bbe111d892e2080020a0f4c9,53.5888890,-113.5486100,Edmonton,Alberta,50000,,Alberta Culture and Tourism
IASTK,Atihk Sakahikun,Undetermined,,Lake,Water Feature,LAKE,0cae0df0849c20c35d3f0b1c087859c7,58.7391667,-115.4836111,20-112-9-W5,Alberta,50000,1991-09-23,Alberta Culture and Tourism
IACKT,Atikameg,Undetermined,,Hamlet,Populated Place,UNP,0c8355b4849c20c3575beb2632e2752b,55.9169444,-115.6513889,8-80-11-W5,Alberta,250000,1945-12-08,Alberta Culture and Tourism
IACKV,Atikkamek Creek,Undetermined,,Creek,Water Feature,RIV,0c835672849c20c3781491e9a4e9423f,54.6066667,-116.8533333,65-19-W5,Alberta,1000000,1956-11-06,Alberta Culture and Tourism
IACKW,Atim Creek,Undetermined,,Creek,Water Feature,RIV,0c835632849c20c3a132186b3d918f9b,53.5980556,-113.7558333,53-26-W4,Alberta,250000,1950-03-02,Alberta Culture and Tourism
IACKX,Atim Lake,Undetermined,,Lake,Water Feature,LAKE,0cff812c849c20c3d626b1f14fee2f4e,53.5936111,-113.8341667,7-53-26-W4,Alberta,50000,1962-11-01,Alberta Culture and Tourism
IACKZ,Atkinson Creek,Undetermined,,Creek,Water Feature,RIV,0c8356d2849c20c3099b833f326c8118,51.4186111,-114.8405556,30-28-6-W5,Alberta,250000,1934-11-24,Alberta Culture and Tourism
IACLB,Atlee,Undetermined,,Locality,Populated Place,UNP,0c83575d849c20c374dcb49eddc4aa2c,50.8416667,-110.9502778,5-22-7-W4,Alberta,250000,1941-07-12,Alberta Culture and Tourism
IACLC,Atmore,Undetermined,,Hamlet,Populated Place,UNP,0c835712849c20c3dc21ffe34654b245,54.8191667,-112.5497222,20-67-17-W4,Alberta,250000,1945-12-08,Alberta Culture and Tourism
IACLD,Atusis Creek,Undetermined,,Creek,Water Feature,RIV,0c8357df849c20c31343ffcde33e21e0,51.3130556,-113.0547222,27-22-W4,Alberta,250000,1955-01-20,Alberta Culture and Tourism
IACLE,Auburndale,Undetermined,,Locality,Populated Place,UNP,0c83579e849c20c3e65c269cba070e41,53.0583333,-110.8591667,18-47-6-W4,Alberta,250000,1940-05-21,Alberta Culture and Tourism
IACLF,Audet Lake,Undetermined,,Lake,Water Feature,LAKE,0c835924849c20c3617ff2343e47c692,57.6444445,-110.9122222,"99,100-6-W4",Alberta,250000,1950-06-02,Alberta Culture and Tourism
IACLG,Auger Bay,Undetermined,,Bay,Water Feature,BAY,0c8358ca849c20c37482e7c5e68f0b53,55.3994444,-115.2533333,"74-8,9-W5",Alberta,250000,1945-12-08,Alberta Culture and Tourism
IACLH,Auger Lake,Undetermined,,Lake,Water Feature,LAKE,0c8359cd849c20c3db5bc60e7d2c8d0f,54.7208334,-112.5166667,66-17-W4,Alberta,250000,1948-01-06,Alberta Culture and Tourism
IACLI,Aura Creek,Undetermined,,Creek,Water Feature,RIV,0c83598b849c20c3716ba019517e4876,51.3344444,-114.9352778,28-27-7-W5,Alberta,50000,1932-01-05,Alberta Culture and Tourism
IACLJ,Aurora Mountain,Undetermined,,Mountain,Terrain Feature,MTN,7ae89cf6ba3411d892e2080020a0f4c9,50.8250000,-115.5427778,21-12-W5,Alberta,250000,1957-10-03,Alberta Culture and Tourism
IACLK,Avalanche Creek,Undetermined,,Creek,Water Feature,RIV,0c835a1f849c20c3d5650b0cc2d75ec0,53.5855555,-119.8652778,53-13-W6,Alberta,50000,1925-01-13,Alberta Culture and Tourism
IACLL,Avalanche Pass,Undetermined,,Pass,Terrain Feature,VALL,5a0b38b6ba3411d892e2080020a0f4c9,53.6161111,-119.9108333,53-13-W6,Alberta,250000,1925-01-13,Alberta Culture and Tourism
IACLN,Avenir,Undetermined,,Locality,Populated Place,UNP,0c835aad849c20c305a8f9c606b08041,55.0405555,-112.2808333,6-70-15-W4,Alberta,250000,1949-07-07,Alberta Culture and Tourism
IACLO,Avion Ridge,Undetermined,,Ridge,Terrain Feature,MTN,0c835a60849c20c3f4aff04bd98f8b7d,49.1563888,-114.1138889,2-1-W5,Alberta,250000,1957-05-02,Alberta Culture and Tourism
IACLP,Avonmore,Undetermined,,Urban Community,Populated Place,UNP,4dd79782bbe111d892e2080020a0f4c9,53.5000000,-113.4500000,Edmonton,Alberta,50000,,Alberta Culture and Tourism
IASZP,Aye Mountain,Undetermined,,Mountain,Terrain Feature,MTN,ff55ae4dc6cd11d892e2080020a0f4c9,50.8444445,-115.6430556,,Alberta,250000,1970-12-15,Alberta Culture and Tourism
IASHC,Aylmer Canyon,Undetermined,,Canyon,Terrain Feature,VALL,0cadad6a849c20c35f09ea5bcd512d3c,51.2922222,-115.4161111,,Alberta,50000,1924-03-31,Alberta Culture and Tourism
IACWA,Aylmer Pass,Undetermined,,Pass,Terrain Feature,VALL,0c839088849c20c3823151f982e463d3,51.3177778,-115.4552778,27-11-W5,Alberta,50000,1961-03-15,Alberta Culture and Tourism
IARPW,Aztec Lake,Undetermined,,Lake,Water Feature,LAKE,9ca8ab79c6cb11d892e2080020a0f4c9,52.4586111,-117.0102778,,Alberta,50000,1987-08-03,Alberta Culture and Tourism
IACWC,Azure,Undetermined,,Locality,Populated Place,UNP,0c839115849c20c3241b64e9c9608712,50.5011111,-113.8700000,12-18-29-W4,Alberta,50000,1957-05-02,Alberta Culture and Tourism
IACWE,Azure Lake,Undetermined,,Lake,Water Feature,LAKE,c4d468abd05211d892e2080020a0f4c9,53.4580556,-119.0025000,52-7-W6,Alberta,250000,1956-08-02,Alberta Culture and Tourism
IACWF,Babel Creek,Undetermined,,Creek,Water Feature,RIV,0c83919b849c20c34b2fde2f80464950,51.3327778,-116.1755556,27-16-W5,Alberta,50000,1952-04-03,Alberta Culture and Tourism
IACWI,Babette Creek,Undetermined,,Creek,Water Feature,RIV,0c8391dd849c20c382810f92de23cd9b,54.6469445,-113.0786111,26-65-21-W4,Alberta,250000,1952-08-14,Alberta Culture and Tourism
IACWK,Bacon Creek,Undetermined,,Creek,Water Feature,RIV,0c839260849c20c33805ba7702d6af5c,53.1619445,-116.7677778,48-19-W5,Alberta,250000,1944-11-28,Alberta Culture and Tourism
IACWS,Bad Heart,Undetermined,,Locality,Populated Place,UNP,0c839326849c20c3840e1f70522cd178,55.5000000,-118.3000000,17-75-2-W6,Alberta,250000,1948-03-02,Alberta Culture and Tourism
IACWT,Bad Heart River,Undetermined,,River,Water Feature,RIV,0c839368849c20c3a8fd5359ac93963f,55.5522222,-118.1930556,2-76-2-W6,Alberta,1000000,1948-03-02,Alberta Culture and Tourism
IACWV,Bad Land Hills,Undetermined,,Hills,Terrain Feature,MTN,0c8393ab849c20c35f4d6cb81f83c867,50.0825000,-111.7625000,13-13-W4,Alberta,250000,1955-10-06,Alberta Culture and Tourism
IADNO,Bad Rapids,Undetermined,,Rapids,Water Feature,RAP,0c83d108849c20c370a776c4faada193,57.0938889,-114.6400000,"93-4,5-W5",Alberta,50000,1955-02-02,Alberta Culture and Tourism
IACWM,Badger Hill,Undetermined,,Hill,Terrain Feature,MTN,0c8392a1849c20c37a1ca95b72d0ef33,52.8219445,-110.9933333,44-7-W4,Alberta,250000,1954-07-08,Alberta Culture and Tourism
IARAS,Badger Hill,Undetermined,,Hill,Terrain Feature,MTN,0c89fa46849c20c335aca77a9b24ae21,51.9211111,-112.1563889,24-34-16-W4,Alberta,50000,1986-07-28,Alberta Culture and Tourism
IADNN,Badger Lake,Undetermined,,Lake,Water Feature,LAKE,0c83d084849c20c37adffeab79d53c28,50.3802778,-112.4644444,"30,31-16-18-W4",Alberta,250000,1971-03-03,Alberta Culture and Tourism
IACWQ,Badger Pass,Undetermined,,Pass,Terrain Feature,VALL,0c8392e4849c20c36e5445f0b32be23d,51.4108333,-115.8933333,28-14-W5,Alberta,50000,1959-12-10,Alberta Culture and Tourism
IACWX,Bailey Creek,Undetermined,,Creek,Water Feature,RIV,0c83942f849c20c38d65f9395c75e139,52.9775000,-116.8366667,46-20-W5,Alberta,250000,1940-04-05,Alberta Culture and Tourism
IADNP,Bailey Lake,Undetermined,,Lake,Water Feature,LAKE,0c83d0c5849c20c3cfdd35637c7f638e,59.9461111,-110.1705556,126-2-W4,Alberta,50000,1958-01-28,Alberta Culture and Tourism
IACWY,Bailey Lakes,Undetermined,,Lakes,Water Feature,LAKE,0c8393ed849c20c393b2e6fb8ab9cfcb,53.5488889,-112.8933333,53-20-W4,Alberta,50000,1957-08-01,Alberta Culture and Tourism
IARTT,Bailey's Bottom,Undetermined,,Bottom,Feature Associated with Vegetation,VEGL,0c8a098e849c20c30bf6dd81d51c493b,49.6319444,-112.9166667,E9-8-22-4,Alberta,250000,1987-05-05,Alberta Culture and Tourism
IACXA,Bain,Undetermined,,Locality,Populated Place,UNP,0c839471849c20c35cd0158e95a389de,49.2738889,-110.3977778,6-4-3-W4,Alberta,50000,1947-03-13,Alberta Culture and Tourism
IACXC,Baintree,Undetermined,,Locality,Populated Place,UNP,0c8394b1849c20c352d278c4089a237c,51.1733333,-113.2422222,35-25-24-W4,Alberta,250000,1955-01-20,Alberta Culture and Tourism
IACXD,Baird Lake,Undetermined,,Lake,Water Feature,LAKE,0c8394f3849c20c31ca20cef729afcd4,54.3413889,-114.4063889,62-3-W5,Alberta,250000,1945-12-08,Alberta Culture and Tourism
IACXE,Baker Creek,Undetermined,,Creek,Water Feature,RIV,0cff87fb849c20c34a561a575e3c7050,51.3458333,-116.0694444,27-15-W5,Alberta,250000,1952-04-03,Alberta Culture and Tourism
IADNQ,Baker Lake,Undetermined,,Lake,Water Feature,LAKE,0c83d149849c20c332e3023d531045c0,56.4336111,-110.1194444,"4,5,8,9-86-1-w4",Alberta,250000,1944-12-09,Alberta Culture and Tourism
IACXG,Baker Lake,Undetermined,,Lake,Water Feature,LAKE,0c839533849c20c3a176d9d84f3cb568,53.0347222,-110.2502778,47-2-W4,Alberta,250000,1940-05-21,Alberta Culture and Tourism
IACXF,Baker Lake,Undetermined,,Lake,Water Feature,LAKE,0c839574849c20c3fdedb830df7f6f29,51.4911111,-116.0405556,29-15-W5,Alberta,250000,1952-04-03,Alberta Culture and Tourism
IACXJ,Bald Mountain Creek,Undetermined,,Creek,Water Feature,RIV,0c8395b6849c20c33f92d16b080040ec,54.8905556,-118.6963889,68-5-W6,Alberta,250000,1957-10-03,Alberta Culture and Tourism
IACXL,Balfour Creek,Undetermined,,Creek,Water Feature,RIV,0c8395f8849c20c3149cee50e3bdae50,51.5922222,-116.3994444,25-30-18-W5,Alberta,50000,1975-08-14,Alberta Culture and Tourism
IACXM,Balfour Glacier,Undetermined,,Glacier,Ice and Snow Feature,GLAC,0cff883d849c20c33ac95764d59ff0b2,51.5719445,-116.4305556,30-18-W5,Alberta,50000,1924-03-31,Alberta Culture and Tourism
IACXO,Balfour Pass,Undetermined,,Pass,Terrain Feature,VALL,7b57163fba3411d892e2080020a0f4c9,51.5872222,-116.4719444,30-18-W5,Alberta,250000,1924-03-31,Alberta Culture and Tourism
IACXP,Balinhard Creek,Undetermined,,Creek,Water Feature,RIV,0c83967b849c20c3fdca45b5c3fa969c,52.7758334,-117.3666667,44-24-W5,Alberta,50000,1925-05-05,Alberta Culture and Tourism
IACXV,Ball Lake,Undetermined,,Lake,Water Feature,LAKE,0c8396ff849c20c3015c1ebc5b8ab21b,53.5205556,-113.2741667,26-52-23-W4,Alberta,250000,1950-03-02,Alberta Culture and Tourism
IADNS,Ball Pass,Undetermined,,Pass,Terrain Feature,VALL,7b6ac450ba3411d892e2080020a0f4c9,51.1263889,-115.9886111,25-15-W5,Alberta,50000,1956-11-02,Alberta Culture and Tourism
IADNT,Ball Range,Undetermined,,Range,Terrain Feature,MTN,5b5014d0ba3411d892e2080020a0f4c9,51.1505556,-115.9891667,25-15-W5,Alberta,250000,1952-04-03,Alberta Culture and Tourism
IACXS,Ballantine,Undetermined,,Locality,Populated Place,UNP,0cff887e849c20c3fc144294116a2983,53.9172223,-114.5666667,17-57-4-W5,Alberta,250000,1950-04-06,Alberta Culture and Tourism
IACXT,Ballater,Undetermined,,Former Post Office,Populated Place,UNP,bd993833c6cd11d892e2080020a0f4c9,55.5769444,-117.1841667,17-76-21-W5,Alberta,50000,1988-12-31,Alberta Culture and Tourism
IACXX,Balm,Undetermined,,Locality,Populated Place,UNP,0cff88c0849c20c388ca2ed002de7c01,53.9197222,-115.2644444,10-57-9-W5,Alberta,250000,1950-06-02,Alberta Culture and Tourism
IACYA,Balwin,Undetermined,,Urban Community,Populated Place,UNP,4e2bf91cbbe111d892e2080020a0f4c9,53.5833330,-113.4500000,Edmonton,Alberta,50000,,Alberta Culture and Tourism
IACYB,Balzac,Undetermined,,Locality,Populated Place,UNP,0c839783849c20c37e39df73daafb832,51.2133334,-114.0094444,13-26-1-W5,Alberta,250000,1956-11-02,Alberta Culture and Tourism
IACYC,Banana Lake,Undetermined,,Lake,Water Feature,LAKE,0c839741849c20c3a267cd10e2f9114c,54.7197222,-113.8358333,66-26-W4,Alberta,250000,1952-06-06,Alberta Culture and Tourism
IACYD,Banded Peak,Undetermined,,Peak,Terrain Feature,MTN,0c8397c6849c20c33013a91c65c1fa7b,50.7183333,-114.9180556,20-7-W5,Alberta,250000,1951-09-06,Alberta Culture and Tourism
IACYE,Banff,Undetermined,,Town,Populated Place,TOWN,7b1af00ed05511d892e2080020a0f4c9,51.1777778,-115.5736111,25-12-W5,Alberta,15000000,1995-01-01,Alberta Culture and Tourism
IATZH,Banff National Park of Canada,Undetermined,,National Park,Administrative Area,PARK,72996237ba3411d892e2080020a0f4c9,51.6000000,-116.0500000,,Alberta,5000000,2001-01-12,Parks Canada
IATZX,Banff Park Museum National Historic Site of Canada,Undetermined,,National Historic Site,Administrative Area,PARK,74213abeba3411d892e2080020a0f4c9,51.1733330,-115.5722200,35-25-12-W5,Alberta,1000000,2001-01-12,Parks Canada
IACYF,Banff Trail,Undetermined,,Urban Community,Populated Place,UNP,4e345d8dbbe111d892e2080020a0f4c9,51.0666670,-114.1166700,Calgary,Alberta,50000,,Alberta Culture and Tourism
IARXJ,Banff Training Area,Undetermined,,Canadian Forces Range and/or Training Area (C.F.T.A.),Constructed Feature,MIL,70257bfbba3411d892e2080020a0f4c9,51.2130560,-115.5344400,"7,8-26-11-W5",Alberta,50000,1990-09-01,National Defence
IACYG,Bangs Lake,Undetermined,,Lake,Water Feature,LAKE,0c839807849c20c35537251d61ec4a15,54.1561111,-111.0338889,"59,60-7-W4",Alberta,250000,1950-07-06,Alberta Culture and Tourism
IADNU,Bank Bay,Undetermined,,Locality,Populated Place,UNP,0c83d1d1849c20c3aea6544d32e035f1,54.5705556,-110.2347222,34-64-2-W4,Alberta,250000,1945-07-28,Alberta Culture and Tourism
IACYH,Bank Creek,Undetermined,,Creek,Water Feature,RIV,0c839889849c20c31543b4015ed3b690,54.0252778,-119.7838889,58-13-W6,Alberta,250000,1958-12-04,Alberta Culture and Tourism
IACYI,Bankfoot Creek,Undetermined,,Creek,Water Feature,RIV,0c839848849c20c34c73637df16a48d2,51.6616667,-115.3086111,31-10-W5,Alberta,50000,1958-12-31,Alberta Culture and Tourism
IACYJ,Bankhead,Undetermined,,Locality,Populated Place,UNP,0cff8901849c20c36e6a56d01916cb58,51.2075000,-115.5347222,12-26-12-W5,Alberta,50000,1956-11-02,Alberta Culture and Tourism
IACYK,Banko Junction,Undetermined,,Railway Point,Populated Place,UNP,0cff8944849c20c37eb80be5a351050b,53.7472223,-113.5375000,17-55-24-W4,Alberta,50000,1980-09-10,Alberta Culture and Tourism
IACYM,Bankview,Undetermined,,Urban Community,Populated Place,UNP,4e3b897ebbe111d892e2080020a0f4c9,51.0333330,-114.1000000,Calgary,Alberta,50000,,Alberta Culture and Tourism
IATRR,Bannerman,Undetermined,,Urban Community,Populated Place,UNP,5892c8fdbbe111d892e2080020a0f4c9,53.5986110,-113.3750000,Edmonton,Alberta,50000,,Alberta Culture and Tourism
IACYN,Bantry,Undetermined,,Locality,Populated Place,UNP,0c8398e0849c20c3491f2659c178676a,50.4938889,-111.7333333,5-18-13-W4,Alberta,50000,1941-12-07,Alberta Culture and Tourism
IACYP,Baptiste Creek,Undetermined,,Creek,Water Feature,RIV,0c839964849c20c34dcffc6f7346af5d,54.7666667,-113.4558333,4-67-23-W4,Alberta,250000,1948-01-06,Alberta Culture and Tourism
IADNV,Baptiste Lake,Undetermined,,Lake,Water Feature,LAKE,0c83d189849c20c30d79ff0fcd919331,54.7566667,-113.5605556,"66,67-24-W4",Alberta,1000000,1945-12-08,Alberta Culture and Tourism
IACYQ,Baptiste Lake,Undetermined,,Locality,Populated Place,UNP,0c839923849c20c3d1beade3813d60a0,54.7400000,-113.5366667,27-66-24-W4,Alberta,250000,1945-12-08,Alberta Culture and Tourism
IACYT,Baptiste River,Undetermined,,River,Water Feature,RIV,0c8399e8849c20c38ff0a5147bd4af20,52.6736111,-115.0750000,42-8-W5,Alberta,1000000,1955-01-20,Alberta Culture and Tourism
IACYS,Baptiste River,Undetermined,,Locality,Populated Place,UNP,0c8399a6849c20c3259e6f37f71cac32,52.6584720,-115.3011670,3-43-8-W5,Alberta,250000,1950-12-10,Alberta Culture and Tourism
IATZZ,Bar U Ranch National Historic Site of Canada,Undetermined,,National Historic Site,Administrative Area,PARK,7448bfefba3411d892e2080020a0f4c9,50.4202780,-114.2444400,8-17-2-W5,Alberta,1000000,2001-01-12,Parks Canada
IATSG,Baranow,Undetermined,,Urban Community,Populated Place,UNP,591c927cbbe111d892e2080020a0f4c9,53.6069440,-113.5347200,Edmonton,Alberta,50000,,Alberta Culture and Tourism
IACYW,Barbara Creek,Undetermined,,Creek,Water Feature,RIV,0cff8986849c20c3e07ee081f48c6094,53.6347222,-117.7094444,54-26-W5,Alberta,250000,1945-12-05,Alberta Culture and Tourism
IACYX,Barbara Lake,Undetermined,,Lake,Water Feature,LAKE,0c839a6c849c20c35e75ce749f77a754,54.5305555,-110.8691667,64-6-W4,Alberta,1000000,1951-01-17,Alberta Culture and Tourism
IACYY,Barber Lake,Undetermined,,Lake,Water Feature,LAKE,0c839a2a849c20c346f0bab1e78504dc,58.1033333,-110.8591667,105-6-W4,Alberta,250000,1954-06-03,Alberta Culture and Tourism
IACYZ,Barbette Glacier,Undetermined,,Glacier,Ice and Snow Feature,GLAC,0c839aae849c20c3fa1b81ab2d37f437,51.7466667,-116.6163889,32-19-W5,Alberta,50000,1957-05-02,Alberta Culture and Tourism
IACZA,Barbette Mountain,Undetermined,,Mountain,Terrain Feature,MTN,5ad2805bba3411d892e2080020a0f4c9,51.7250000,-116.6166670,32-19-W5,Alberta,50000,1995-09-06,Alberta Culture and Tourism
IACZC,Bard Lake,Undetermined,,Lake,Water Feature,LAKE,0c839aef849c20c302787f7636950cd0,53.8166667,-114.0166667,56-1-W5,Alberta,250000,1950-04-06,Alberta Culture and Tourism
IACZD,Bardo,Undetermined,,Locality,Populated Place,UNP,0c839b74849c20c30404578110382db5,53.2986111,-112.6875000,10-50-19-W4,Alberta,250000,1950-05-02,Alberta Culture and Tourism
IACZE,Bare Creek,Undetermined,,Creek,Water Feature,RIV,0c839b31849c20c3f926712cf9150799,49.2344444,-110.0144444,25-3-1-W4,Alberta,250000,1947-03-13,Alberta Culture and Tourism
IACZF,Bare Range,Undetermined,,Range,Terrain Feature,MTN,0c839bf6849c20c38ea3f2a6d5a1e184,51.5800000,-115.7311110,30-13-W5,Alberta,250000,1956-11-02,Alberta Culture and Tourism
IACZG,Bargrave,Undetermined,,Locality,Populated Place,UNP,0c839bb6849c20c3315c520a8c148a18,51.5480555,-113.4730556,9-30-25-W4,Alberta,250000,1955-01-20,Alberta Culture and Tourism
IACZH,Barich,Undetermined,,Locality,Populated Place,UNP,0c839c7a849c20c3186cea5a07257a4b,54.1805556,-112.6266667,16-60-18-W4,Alberta,250000,1970-03-26,Alberta Culture and Tourism
IACZI,Baril Creek,Undetermined,,Creek,Water Feature,RIV,0c839c38849c20c3640a22e30aa561f0,50.3625000,-114.6361111,16-5-W5,Alberta,250000,1943-12-08,Alberta Culture and Tourism
IACZJ,Baril Creek,Undetermined,,Creek,Water Feature,RIV,0c839cfd849c20c3a844b69d47cb5eee,53.3722222,-116.8722222,3-51-20-W5,Alberta,250000,1958-09-04,Alberta Culture and Tourism
IACZK,Baril Lake,Undetermined,,Lake,Water Feature,LAKE,0c839cbc849c20c3cb781e3164a31ef5,58.7652778,-111.6855556,"112,113-10,11-W4",Alberta,1000000,1954-06-03,Alberta Culture and Tourism
IACZL,Baril Peak,Undetermined,,Peak,Terrain Feature,MTN,7b988b11ba3411d892e2080020a0f4c9,50.2994444,-114.7563889,15-6-W5,Alberta,250000,1924-03-31,Alberta Culture and Tourism
IACZM,Baril River,Undetermined,,River,Water Feature,RIV,0c839d3e849c20c342fe3bfeddb11d8f,58.9161111,-111.7405556,114-11-W4,Alberta,250000,1954-06-03,Alberta Culture and Tourism
IADNW,Barkenhouse Lake,Undetermined,,Lake,Water Feature,LAKE,0c83d214849c20c3434eff189f795e15,50.9019444,-112.3527778,"30,31-17-18-22-W4",Alberta,1000000,1971-03-03,Alberta Culture and Tourism
IACZN,Barlee Junction,Undetermined,,Locality,Populated Place,UNP,0c839dc5849c20c341942cd071bfb555,53.0500000,-112.8166667,14-47-20-W4,Alberta,250000,1952-10-02,Alberta Culture and Tourism
IACZO,Barlow,Undetermined,,Railway Point,Populated Place,UNP,0c839d84849c20c3dc91b40be05beb19,51.0080555,-113.9633333,34-23-29-W4,Alberta,250000,1955-01-20,Alberta Culture and Tourism
IACZQ,Barnaby Creek,Undetermined,,Creek,Water Feature,RIV,0c839e05849c20c32c58b67a57e48535,49.3652778,-114.3447222,9-5-3-W5,Alberta,50000,1962-03-31,Alberta Culture and Tourism
IACZR,Barnaby Lake,Undetermined,,Lake,Water Feature,LAKE,0c839e47849c20c34e92950d5ef1e74e,49.3380555,-114.3819444,32-4-3-W5,Alberta,50000,1978-02-15,Alberta Culture and Tourism
IAGDE,Barnaby Ridge,Undetermined,,Ridge,Terrain Feature,MTN,0c850b8c849c20c3356416a1b946de3f,49.3000000,-114.3666667,4-3-W5,Alberta,250000,1928-12-31,Alberta Culture and Tourism
IACZS,Barnard Dent Group,Undetermined,,Group,Terrain Feature,MTN,7ba953f2ba3411d892e2080020a0f4c9,51.7430556,-116.9458333,32-21-W5,Alberta,250000,1957-10-03,Alberta Culture and Tourism
IACZU,Barnegat,Undetermined,,Locality,Populated Place,UNP,0c839e88849c20c3c1568c409a575bf7,54.7925000,-111.8266667,8-67-12-W4,Alberta,250000,1952-08-14,Alberta Culture and Tourism
IACZW,Barnes Ridge,Undetermined,,Ridge,Terrain Feature,MTN,0c839eca849c20c3278a92518154cc77,51.0580556,-114.6755556,24-5-W5,Alberta,250000,1956-11-02,Alberta Culture and Tourism
IACZX,Barnett Lake,Undetermined,,Lake,Water Feature,LAKE,0cff89c8849c20c3f5085d8de58a41db,51.0719444,-113.2333333,25-24-24-W4,Alberta,50000,1976-03-12,Alberta Culture and Tourism
IACZZ,Barnett Lake,Undetermined,,Lake,Water Feature,LAKE,0c839f0b849c20c33d65d08132b8742d,52.4897222,-113.7450000,40-26-W4,Alberta,250000,1955-11-03,Alberta Culture and Tourism
IACZY,Barnett Lake,Undetermined,,Lake,Water Feature,LAKE,286dda2cc6ce11d892e2080020a0f4c9,52.2619444,-112.5813889,13-38-19-4W,Alberta,250000,1983-05-05,Alberta Culture and Tourism
IADAA,Barnwell,Undetermined,,Village,Populated Place,VILG,885c3690c6be11d892e2080020a0f4c9,49.7605556,-112.2633333,28-9-17-W4,Alberta,1000000,2004-01-01,Alberta Culture and Tourism
IADAB,Barons,Undetermined,,Village,Populated Place,VILG,69054428d05511d892e2080020a0f4c9,49.9966667,-113.0830556,16-12-23-W4,Alberta,250000,1995-01-01,Alberta Culture and Tourism
IADKU,Barr Creek,Undetermined,,Creek,Water Feature,RIV,7c1ef928ba3411d892e2080020a0f4c9,55.1866667,-119.9008333,34-71-13-W6,Alberta,250000,1961-03-02,Alberta Culture and Tourism
IADKW,Barreyre Lake,Undetermined,,Lake,Water Feature,LAKE,0c83c5f9849c20c30678f29393e192e7,54.2744445,-110.6950000,16-61-5-W4,Alberta,250000,1950-06-02,Alberta Culture and Tourism
IADKX,Barrhead,Undetermined,,Town,Populated Place,TOWN,6932479cd05511d892e2080020a0f4c9,54.1216667,-114.4036111,59-3-W5,Alberta,7500000,1995-01-01,Alberta Culture and Tourism
IADLA,Barricade Mountain,Undetermined,,Mountain,Terrain Feature,MTN,0c83c63b849c20c328c163c21c3a9bbd,53.4036111,-119.4822222,51-11-W6,Alberta,250000,1956-08-02,Alberta Culture and Tourism
IAIZA,Barrier Lake,Undetermined,,Lake,Water Feature,LAKE,0c86788d849c20c3654a4633f55b35bb,51.0166670,-115.0666700,24-8-W5,Alberta,250000,1956-11-02,Alberta Culture and Tourism
IADLC,Barrier Mountain,Undetermined,,Mountain,Terrain Feature,MTN,0c83c6be849c20c306734d2284ccd9fc,51.6575000,-115.6169444,31-12-W5,Alberta,250000,1956-11-02,Alberta Culture and Tourism
IAIZB,Barrow Lake,Undetermined,,Lake,Water Feature,LAKE,0c86784d849c20c30bb68fe8ccd79b63,59.2508334,-111.2247222,"118-7,8-W4",Alberta,250000,1958-03-06,Alberta Culture and Tourism
IADLD,Barry Creek,Undetermined,,Creek,Water Feature,RIV,0c83c67c849c20c3a7e2eb6e7df89086,51.8441666,-114.9316667,21-33-7-W5,Alberta,250000,1937-11-02,Alberta Culture and Tourism
IADLE,Bartman Reservoir,Undetermined,,Reservoir,Water Feature,LAKE,0c83c741849c20c36e96e35064337d64,51.1152778,-111.4527778,25-11-W4,Alberta,250000,1952-01-17,Alberta Culture and Tourism
IARAT,Barton Lake,Undetermined,,Lake,Water Feature,LAKE,0c89fa04849c20c3c6da1549efd9be60,54.0350000,-114.5672222,"20,29,30-58-4-W5",Alberta,250000,1986-03-06,Alberta Culture and Tourism
IADLF,Bartsch Creek,Undetermined,,Creek,Water Feature,RIV,0c83c6ff849c20c31186dfa32275b3f6,55.3941667,-116.9319444,12-74-20-W5,Alberta,250000,1954-01-14,Alberta Culture and Tourism
IADLG,Bartstow,Undetermined,,Locality,Populated Place,UNP,0c83c783849c20c3066f8df115cc033e,50.8780556,-113.1661111,22-23-W4,Alberta,50000,1957-05-02,Alberta Culture and Tourism
IAIZC,Base Lake,Undetermined,,Lake,Water Feature,LAKE,0c8678ee849c20c3715d214d0fef77c8,55.6491667,-111.8450000,77-12-W4,Alberta,250000,1966-10-13,Alberta Culture and Tourism
IADLJ,Base Line Creek,Undetermined,,Creek,Water Feature,RIV,0c83c7c4849c20c3cf5310c5e55aa121,52.2069445,-115.1927778,37-9-W5,Alberta,250000,1941-08-14,Alberta Culture and Tourism
IADLM,Base Line Lake,Undetermined,,Lake,Water Feature,LAKE,0cff8ded849c20c33c5419e9752f920d,54.2375000,-119.8450000,"60,61-13-W6",Alberta,50000,1958-12-04,Alberta Culture and Tourism
IAAGW,Base des Forces canadiennes Cold Lake,Undetermined,,Canadian Forces Base,Constructed Feature,MIL,545016afba3411d892e2080020a0f4c9,54.4075000,-110.2755600,"62,63-2,3-W4",Alberta,250000,1990-12-31,National Defence
IAAHI,Base des Forces canadiennes Suffield,Undetermined,,Canadian Forces Base,Constructed Feature,MIL,54d43ad1ba3411d892e2080020a0f4c9,50.2733334,-111.1750000,"21,22-15-9-W4",Alberta,250000,1990-12-31,National Defence
IADLK,Baseline Creek,Undetermined,,Creek,Water Feature,RIV,0c83c886849c20c3624cb28db3b865b2,53.5322223,-117.3505556,32-52-23-W5,Alberta,250000,1946-09-18,Alberta Culture and Tourism
IATCC,Baseline Lake,Undetermined,,Lake,Water Feature,LAKE,0cc53e51849c20c39494285d71810656,56.6800000,-113.2341667,35-89-17-W4,Alberta,50000,1992-01-22,Alberta Culture and Tourism
IADLL,Baseline Lake,Undetermined,,Lake,Water Feature,LAKE,0c83c845849c20c37aed7294c9a2ae72,54.2338889,-115.9136111,60-13-W5,Alberta,250000,1945-12-08,Alberta Culture and Tourism
IADLN,Baseline Mountain,Undetermined,,Mountain,Terrain Feature,MTN,0cff8e30849c20c33ed83d5b81184443,52.1333333,-115.4291667,31-36-10-W5,Alberta,250000,1978-10-27,Alberta Culture and Tourism
IADLO,Bashaw,Undetermined,,Town,Populated Place,TOWN,7b315e40d05511d892e2080020a0f4c9,52.5830555,-112.9702778,4-42-21-W4,Alberta,1000000,1995-01-01,Alberta Culture and Tourism
IADLP,Basilica Mountain,Undetermined,,Mountain,Terrain Feature,MTN,0c83c8c7849c20c39a857a54cee77b52,52.8055556,-118.3422222,44-3-W6,Alberta,250000,1951-02-07,Alberta Culture and Tourism
IADLQ,Bassano,Undetermined,,Town,Populated Place,TOWN,693d923dd05511d892e2080020a0f4c9,50.7875000,-112.4683333,17-21-18-W4,Alberta,1000000,1995-01-01,Alberta Culture and Tourism
IADLT,Basset Lake,Undetermined,,Lake,Water Feature,LAKE,0c83c949849c20c35a3e83d38f4d9b14,58.3194444,-118.4777778,"107-3,4-W6",Alberta,1000000,1944-11-06,Alberta Culture and Tourism
IADLU,Bastion Peak,Undetermined,,Peak,Terrain Feature,MTN,7f61ef30ba3411d892e2080020a0f4c9,52.7097222,-118.3450000,43-3-W6,Alberta,50000,1935-03-05,Alberta Culture and Tourism
IADMC,Bat Lake,Undetermined,,Lake,Water Feature,LAKE,0c83cb1e849c20c3ebd0450c37653383,53.2252778,-114.5338889,16-49-4-W5,Alberta,50000,1959-04-03,Alberta Culture and Tourism
IADME,Bat Lake,Undetermined,,Lake,Water Feature,LAKE,0c83cb69849c20c3039ab0c3c75d90fc,56.3000000,-114.9500000,"84-6,7-W5",Alberta,250000,1944-10-12,Alberta Culture and Tourism
IADMD,Bat Lake,Undetermined,,Lake,Water Feature,LAKE,0c83cadc849c20c39fc236c8c1378a22,54.6483333,-111.9761111,25-65-14-W4,Alberta,250000,1951-05-03,Alberta Culture and Tourism
IADLV,Bateman Creek,Undetermined,,Creek,Water Feature,RIV,0c83c98b849c20c3eae5cdc2a657dfbe,51.0380555,-114.8127778,8-24-6-W5,Alberta,250000,1956-11-02,Alberta Culture and Tourism
IADLW,Bateman Ridge,Undetermined,,Ridge,Terrain Feature,MTN,0c83ca0e849c20c304a39430a77c9c14,51.0905556,-114.5938889,"24,25-4,5-W5",Alberta,50000,1956-11-02,Alberta Culture and Tourism
IADLX,Bates Lake,Undetermined,,Lake,Water Feature,LAKE,0c83c9cc849c20c341849fb5668ec243,54.2047222,-110.0250000,24-60-1-W4,Alberta,250000,1950-07-06,Alberta Culture and Tourism
IADLY,Bath Creek,Undetermined,,Creek,Water Feature,RIV,0c83ca54849c20c3cdcbb762aefdc068,51.4408333,-116.2077778,28-16-W5,Alberta,50000,1952-04-03,Alberta Culture and Tourism
IADMA,Bath Glacier,Undetermined,,Glacier,Ice and Snow Feature,GLAC,0c83ca99849c20c323844143d40dc615,51.5166666,-116.3833333,29-17-W5,Alberta,250000,1924-03-31,Alberta Culture and Tourism
IADMG,Battensby Lake,Undetermined,,Lake,Water Feature,LAKE,0c83cbec849c20c3d1c89c88a0002dea,52.8422222,-110.6555556,34-44-5-W4,Alberta,250000,1951-04-05,Alberta Culture and Tourism
IADMH,Batter Junction,Undetermined,,Locality,Populated Place,UNP,0c83cbac849c20c3b6f28e9859694468,51.6366667,-111.8227778,8-31-13-W4,Alberta,250000,1964-01-02,Alberta Culture and Tourism
IADMJ,Battle Bend,Undetermined,,Locality,Populated Place,UNP,0c83cc2c849c20c3c6e28472b0f2f612,52.4488889,-111.4452778,"7-40-10,11-W4",Alberta,250000,1951-04-05,Alberta Culture and Tourism
IADMK,Battle Butte,Undetermined,,Butte,Terrain Feature,MTN,0c83ccad849c20c3687cb729478a2044,52.7094444,-111.1419444,43-8-W4,Alberta,250000,1953-01-28,Alberta Culture and Tourism
IADML,Battle Creek,Undetermined,,Creek,Water Feature,RIV,0c83cc6d849c20c327a6fc44f317da3a,52.9833333,-114.2386111,46-2-W5,Alberta,50000,1960-11-03,Alberta Culture and Tourism
IAIZZ,Battle Creek,Undetermined,,Creek,Water Feature,RIV,5231ca7aba3411d892e2080020a0f4c9,49.6483333,-110.0050000,8-30-W3,Alberta,1000000,1947-03-13,Alberta Culture and Tourism
IADMN,Battle Lake,Undetermined,,Locality,Populated Place,UNP,0c83ccee849c20c3cf26c48cb1e70c0e,52.9602778,-114.1219444,46-1-W5,Alberta,250000,1960-11-03,Alberta Culture and Tourism
IADMM,Battle Lake,Undetermined,,Lake,Water Feature,LAKE,0c83cd30849c20c34cd0027b0c6dbd3f,52.9683333,-114.1891667,46-2-W5,Alberta,1000000,1955-01-20,Alberta Culture and Tourism
IARTK,Battle River,Undetermined,,River,Water Feature,RIV,7003ea39ba3411d892e2080020a0f4c9,52.8572222,-110.0000000,,Alberta,5000000,1948-10-07,Alberta Culture and Tourism
IADMP,Battle River,Undetermined,,Locality,Populated Place,UNP,0c83cd70849c20c33b3ebef61d42a465,52.2316667,-111.9333333,4-38-14-W4,Alberta,250000,1950-01-16,Alberta Culture and Tourism
IADMV,Batty Lake,Undetermined,,Lake,Water Feature,LAKE,0c83cdb3849c20c34688f12337220690,54.1047222,-111.6061111,59-11-W4,Alberta,250000,1950-04-06,Alberta Culture and Tourism
IATRZ,Baturyn,Undetermined,,Urban Community,Populated Place,UNP,58ce4b65bbe111d892e2080020a0f4c9,53.6333330,-113.5013900,Edmonton,Alberta,50000,,Alberta Culture and Tourism
IASTW,Bauer's Lake,Undetermined,,Lake,Water Feature,LAKE,0cae10cf849c20c3c02b70648674ac0e,53.2844445,-111.0494444,1-50-8-W4,Alberta,250000,1992-01-22,Alberta Culture and Tourism
IADMX,Bauerman Creek,Undetermined,,Creek,Water Feature,RIV,bdd779b9c6cd11d892e2080020a0f4c9,49.1255556,-114.0202778,2-1-W5,Alberta,250000,1960-04-07,Alberta Culture and Tourism
IAKEQ,Bawlf,Undetermined,,Village,Populated Place,VILG,80ee7b7fd05511d892e2080020a0f4c9,52.9194444,-112.4661110,31-45-17-W4,Alberta,1000000,1995-01-01,Alberta Culture and Tourism
IADNE,Baxter Lakes,Undetermined,,Lakes,Water Feature,LAKE,0c83cefb849c20c3acb7345cb84140da,52.9058333,-110.7216667,"45-5,6-W4",Alberta,1000000,1951-12-06,Alberta Culture and Tourism
IADNC,Bay Tree,Undetermined,,Locality,Populated Place,UNP,0c83ceb9849c20c3410aba13e147e8e7,55.8250000,-119.9061111,2-79-13-W6,Alberta,250000,1947-10-07,Alberta Culture and Tourism
IADMZ,Bayard Lake,Undetermined,,Lake,Water Feature,LAKE,0c83cdf6849c20c34a5319502b77827f,57.7694445,-112.4011111,101-15-W4,Alberta,250000,1954-09-02,Alberta Culture and Tourism
IADNA,Baymar Creek,Undetermined,,Creek,Water Feature,RIV,0c83ce79849c20c36b4a1d6b312d5138,51.2730555,-114.7905556,27-6-W5,Alberta,250000,1930-06-11,Alberta Culture and Tourism
IADNB,Bayonet Lake,Undetermined,,Lake,Water Feature,LAKE,0c83ce37849c20c3c4869a354ca356a6,59.9338889,-110.3036111,"125,126-2-W4",Alberta,250000,1929-06-30,Alberta Culture and Tourism
IADND,Bayview,Undetermined,,Urban Community,Populated Place,UNP,4e491e10bbe111d892e2080020a0f4c9,50.9666670,-114.1000000,Calgary,Alberta,50000,,Alberta Culture and Tourism
IADNZ,Beach Corner,Undetermined,,Locality,Populated Place,UNP,0c83d256849c20c338f68a53f7c58858,53.5416666,-114.1219444,5-53-1-W5,Alberta,250000,1950-04-06,Alberta Culture and Tourism
IADOA,Beacon Corner,Undetermined,,Locality,Populated Place,UNP,0c83d296849c20c36cf07e86526ff74d,54.1797223,-111.1525000,9-60-8-W4,Alberta,250000,1950-07-06,Alberta Culture and Tourism
IATRE,Beacon Heights,Undetermined,,Urban Community,Populated Place,UNP,58175760bbe111d892e2080020a0f4c9,53.5736110,-113.4069400,Edmonton,Alberta,50000,,Alberta Culture and Tourism
IADOC,Beacon Lake,Undetermined,,Lake,Water Feature,LAKE,0c83d2d7849c20c3b01ad6abfe9957c8,52.5397222,-118.2730556,41-2-W6,Alberta,250000,1935-03-05,Alberta Culture and Tourism
IADOE,Beacon Peak,Undetermined,,Peak,Terrain Feature,MTN,0c83d317849c20c37189b00a943bc95c,52.5402777,-118.2422222,41-2-W6,Alberta,50000,1935-03-05,Alberta Culture and Tourism
IAJAA,Beagle Creek,Undetermined,,Creek,Water Feature,RIV,54551f05c6be11d892e2080020a0f4c9,50.0669444,-114.2511111,13-2-W5,Alberta,50000,1970-04-22,Alberta Culture and Tourism
IADOI,Bear Canyon,Undetermined,,Locality,Populated Place,UNP,5337c809c6be11d892e2080020a0f4c9,56.2172222,-119.8186111,27-83-12-W6,Alberta,250000,1976-01-16,Alberta Culture and Tourism
IADOJ,Bear Creek,Undetermined,,Creek,Water Feature,RIV,0c83d3da849c20c30ff80a1995b962b5,49.1508333,-111.2052778,"30-2-9,10-W4",Alberta,250000,1947-03-13,Alberta Culture and Tourism
IADON,Bear Creek,Undetermined,,Creek,Water Feature,RIV,0c83d45f849c20c301bb1b2c22f0df06,51.6480556,-115.1825000,31-9-W5,Alberta,50000,1960-07-07,Alberta Culture and Tourism
IADOR,Bear Creek,Undetermined,,Creek,Water Feature,RIV,0c83d4fb849c20c3c40ab3863816153f,54.3666667,-115.9833333,62-14-W5,Alberta,50000,1957-10-03,Alberta Culture and Tourism
IADOK,Bear Creek,Undetermined,,Creek,Water Feature,RIV,0c83d41f849c20c3886591b8a87bdd9a,50.3505556,-114.4577778,14-16-4-W5,Alberta,250000,1939-12-12,Alberta Culture and Tourism
IADOO,Bear Creek,Undetermined,,Creek,Water Feature,RIV,0c83d49f849c20c38eeb92f896b6e0a0,53.9800000,-119.8411111,58-13-W6,Alberta,250000,1958-12-04,Alberta Culture and Tourism
IADOT,Bear Hills,Undetermined,,Hills,Terrain Feature,MTN,0c83d53d849c20c3c0f56375523385e8,52.8563889,-113.5355556,"44,45-25-W4",Alberta,250000,1955-11-03,Alberta Culture and Tourism
IAQSE,Bear Lake,Undetermined,,Lake,Water Feature,LAKE,0c89f385849c20c3abc504d5e15c9f3f,53.7444444,-116.1522222,"9,10,15,16-55-15-W5",Alberta,250000,1983-10-20,Alberta Culture and Tourism
IADYN,Bear Lake,Undetermined,,Lake,Water Feature,LAKE,0c840118849c20c374204a39ad875bb7,54.0205555,-110.2272222,58-2-W4,Alberta,250000,1950-07-06,Alberta Culture and Tourism
IADYR,Bear Lake,Undetermined,,Lake,Water Feature,LAKE,0c8401a3849c20c39744b3c1b6bc9cd2,55.2516667,-118.9958333,72-7-W6,Alberta,1000000,1947-09-04,Alberta Culture and Tourism
IADYL,Bear Lake,Undetermined,,Locality,Populated Place,UNP,0c8400bd849c20c3463c96c068ac12de,55.2802778,-118.9736111,4-73-7-W6,Alberta,250000,1947-10-07,Alberta Culture and Tourism
IADYQ,Bear Lake,Undetermined,,Lake,Water Feature,LAKE,0c84021f849c20c36e60020cdd8245b8,54.2244444,-114.8730556,60-6-W5,Alberta,250000,1958-01-16,Alberta Culture and Tourism
IASTU,Bear Pond,Undetermined,,Lake,Water Feature,LAKE,0cae104b849c20c38fb74a652500921f,50.2183333,-114.4305556,36-14-4-W5,Alberta,50000,1991-10-17,Alberta Culture and Tourism
IADYT,Bear River,Undetermined,,River,Water Feature,RIV,0c840263849c20c3a245ee8229f46876,58.3308333,-115.4138889,107-9-W5,Alberta,1000000,1944-07-12,Alberta Culture and Tourism
IADYS,Bear River,Undetermined,,River,Water Feature,RIV,0c8402a5849c20c31c8f29f1c5ecca6d,55.1080556,-118.4727778,36-70-4-W6,Alberta,1000000,1947-09-04,Alberta Culture and Tourism
IARFB,Bear River,Undetermined,,River,Water Feature,RIV,c1e9cd0cc6cd11d892e2080020a0f4c9,55.2841667,-119.0350000,32-73-7-W6,Alberta,250000,1951-09-06,Alberta Culture and Tourism
IADYZ,Bear Valley,Undetermined,,Valley,Terrain Feature,VALL,0c840399849c20c3b5a82504d15dc268,51.6394444,-114.7288889,31-6-W5,Alberta,50000,1937-11-02,Alberta Culture and Tourism
IADOF,Bearberry,Undetermined,,Locality,Populated Place,UNP,7b308154c5f711d892e2080020a0f4c9,51.8538889,-114.9230556,27-33-7-W5,Alberta,250000,1975-07-21,Alberta Culture and Tourism
IADOG,Bearberry Creek,Undetermined,,Creek,Water Feature,RIV,0c83d39b849c20c3e64699495c89d5e3,51.7994444,-114.6350000,33-5-W5,Alberta,250000,1956-11-02,Alberta Culture and Tourism
IADOH,Bearberry Prairie,Undetermined,,Prairie,Feature Associated with Vegetation,VEGL,0c83d35a849c20c33f34cd37809d7a76,51.7791667,-114.7752778,32-6-W5,Alberta,50000,1956-11-02,Alberta Culture and Tourism
IADOS,Bearhead Creek,Undetermined,,Creek,Water Feature,RIV,0c83d57f849c20c32ad10f4aa583f133,56.0236111,-116.9713889,18-81-19-W5,Alberta,1000000,1946-12-03,Alberta Culture and Tourism
IADYJ,Bearhills Lake,Undetermined,,Lake,Water Feature,LAKE,0c84001c849c20c35f853b6506521137,52.9386111,-113.6138889,"45,46-25-W4",Alberta,1000000,1937-06-01,Alberta Culture and Tourism
IADYW,Bears Hump,Undetermined,,Cliff,Terrain Feature,CLF,0c840358849c20c3ddeab88417a96725,49.0658334,-113.9161111,1-30-W4,Alberta,50000,1971-06-08,Alberta Culture and Tourism
IADYX,Bearspaw,Undetermined,,Locality,Populated Place,UNP,0c840316849c20c32e40f36d3d654a6f,51.1377778,-114.3102778,14-25-3-W5,Alberta,250000,1956-11-02,Alberta Culture and Tourism
IATPG,Bearspaw,Undetermined,,Urban Community,Populated Place,UNP,566b2ecebbe111d892e2080020a0f4c9,53.4416670,-113.5000000,Edmonton,Alberta,50000,,Alberta Culture and Tourism
IADYY,Beartrap Lake,Undetermined,,Lake,Water Feature,LAKE,0c8404aa849c20c38a9d501c68e299ce,54.2041667,-110.5372222,23-60-4-W4,Alberta,250000,1945-07-28,Alberta Culture and Tourism
IADZA,Beaton Creek,Undetermined,,Creek,Water Feature,RIV,0c840573849c20c39f9a6401ef8a851e,56.5194444,-117.6844444,1-87-24-W5,Alberta,250000,1955-11-03,Alberta Culture and Tourism
IADZB,Beatty Creek,Undetermined,,Creek,Water Feature,RIV,0c840524849c20c340f9653651182c5e,52.8805556,-117.5225000,45-25-W5,Alberta,50000,1956-08-02,Alberta Culture and Tourism
IADZC,Beatty Lake,Undetermined,,Lake,Water Feature,LAKE,0c8405f6849c20c382baa7de86cf4887,59.8605555,-118.0522222,125-1-W6,Alberta,1000000,1944-11-06,Alberta Culture and Tourism
IATYN,Beatty River,Undetermined,,River,Water Feature,RIV,7253a6a6ba3411d892e2080020a0f4c9,58.2194440,-110.0111100,106-1-W4,Alberta,250000,1944-11-28,Alberta Culture and Tourism
IAQOH,Beaudry Lakes,Undetermined,,Lakes,Water Feature,LAKE,0c89edc0849c20c35fdbe47249c2bea5,50.3955556,-114.4686111,34-16-4-W5,Alberta,50000,1983-05-05,Alberta Culture and Tourism
IATSB,Beaumaris,Undetermined,,Urban Community,Populated Place,UNP,58f163c7bbe111d892e2080020a0f4c9,53.6013890,-113.5013900,Edmonton,Alberta,50000,,Alberta Culture and Tourism
IADZF,Beaumont,Undetermined,,City,Populated Place,CITY,6948dcded05511d892e2080020a0f4c9,53.3525000,-113.4152778,34-50-24-W4,Alberta,1000000,2018-12-11,Alberta Culture and Tourism
IADZG,Beaupré Creek,Undetermined,,Creek,Water Feature,RIV,0c84079c849c20c38c0ee0603c389ccf,51.2161111,-114.6127778,15-26-5-W5,Alberta,250000,1956-11-02,Alberta Culture and Tourism
IADZH,Beaupré Hill,Undetermined,,Hill,Terrain Feature,MTN,0c840758849c20c38b11cd11f79085d0,51.2683333,-114.6813889,"6,7-27-5-W5",Alberta,250000,1973-06-21,Alberta Culture and Tourism
IADZI,Beaupré Lake,Undetermined,,Lake,Water Feature,LAKE,0c84086b849c20c3436ff0cfff16a5f4,51.2394444,-114.6672222,20-26-5-W5,Alberta,50000,1956-11-02,Alberta Culture and Tourism
IADZK,Beauty Creek,Undetermined,,Creek,Water Feature,RIV,0c840907849c20c312ec308cc9d7e8d3,52.3219444,-117.3252778,39-24-W5,Alberta,250000,1935-03-05,Alberta Culture and Tourism
IADZL,Beauvais Lake,Undetermined,,Lake,Water Feature,LAKE,0c8408c5849c20c339a24a054a3536d5,49.4086111,-114.0997222,29-5-1-W5,Alberta,250000,1950-03-02,Alberta Culture and Tourism
IAADM,Beauvais Lake Provincial Park,Undetermined,,Provincial Park,Administrative Area,PARK,0c829478849c20c325dfe25900994719,49.4141667,-114.1150000,5-1-W5,Alberta,1000000,1977-12-31,Alberta Culture and Tourism
IADZM,Beauvallon,Undetermined,,Hamlet,Populated Place,UNP,0cff9257849c20c34403c4dae70f62a0,53.6588889,-111.3661111,14-54-10-W4,Alberta,250000,1941-09-11,Alberta Culture and Tourism
IASKZ,Beauvallon Lake,Undetermined,,Lake,Water Feature,LAKE,0cadee84849c20c385477011d1ec8e93,53.6494444,-111.3822222,10-54-10-W4,Alberta,250000,1991-09-04,Alberta Culture and Tourism
IADZN,Beauvert Lake,Undetermined,,Lake,Water Feature,LAKE,0cff9299849c20c3ce415c0d9062ae9d,52.8830556,-118.0597222,45-1-W6,Alberta,50000,1951-02-07,Alberta Culture and Tourism
IASPA,Beaver Bay,Undetermined,,Bay,Water Feature,BAY,97844bdcc6cb11d892e2080020a0f4c9,53.6700000,-112.8386111,14-54-20-W4,Alberta,50000,1991-10-17,Alberta Culture and Tourism
IADZQ,Beaver Bluffs,Undetermined,,Bluffs,Terrain Feature,MTN,0c84098c849c20c3189a424a3b9da3ec,53.2041666,-118.0663889,49-1-W6,Alberta,250000,1956-08-02,Alberta Culture and Tourism
IATWR,Beaver County,Undetermined,,Municipal District,Administrative Area,MUN1,59d69fc5c6ce11d892e2080020a0f4c9,53.2497222,-112.1850000,49-14-W4,Alberta,50000,1999-07-01,Alberta Culture and Tourism
IADZW,Beaver Creek,Undetermined,,Creek,Water Feature,RIV,0c840b40849c20c35241297abe9c9ddf,54.0061111,-116.8366667,58-20-W5,Alberta,250000,1956-11-02,Alberta Culture and Tourism
IASPC,Beaver Creek,Undetermined,,Creek,Water Feature,RIV,9798972ec6cb11d892e2080020a0f4c9,52.8477777,-117.7219444,,Alberta,50000,1991-10-17,Alberta Culture and Tourism
IADZV,Beaver Creek,Undetermined,,Creek,Water Feature,RIV,0c840abe849c20c34458ffcb92df7c0e,52.0644445,-114.6819444,5-36-5-W5,Alberta,250000,1976-09-29,Alberta Culture and Tourism
IADZR,Beaver Creek,Undetermined,,Creek,Water Feature,RIV,0c840949849c20c3fc15605b774c25c8,49.6294444,-113.7000000,8-28-W4,Alberta,1000000,1954-07-08,Alberta Culture and Tourism
IADZT,Beaver Creek,Undetermined,,Creek,Water Feature,RIV,0c8409ec849c20c36b8448427797a299,50.0941667,-114.4361111,13-4-W5,Alberta,50000,1959-10-28,Alberta Culture and Tourism
IAQLL,Beaver Creek,Undetermined,,Creek,Water Feature,RIV,c67b13efd05211d892e2080020a0f4c9,54.1527778,-115.6875000,35-59-12-W5,Alberta,250000,1982-10-22,Alberta Culture and Tourism
IADZS,Beaver Creek,Undetermined,,Creek,Water Feature,RIV,0c840a2c849c20c382bf9fee11fd4655,50.3305555,-114.3269444,11-16-3-W5,Alberta,250000,1939-12-12,Alberta Culture and Tourism
IADZX,Beaver Crossing,Undetermined,,Hamlet,Populated Place,UNP,0c840aff849c20c3bf1979ec38aad017,54.3605555,-110.2066667,15-62-2-W4,Alberta,250000,1950-07-06,Alberta Culture and Tourism
IAEAG,Beaver Flat,Undetermined,,Flat,Terrain Feature,PLN,0c840da6849c20c3fe46f34b9e621aea,52.6180556,-116.3388889,42-17-W5,Alberta,50000,1940-04-23,Alberta Culture and Tourism
IAEAL,Beaver Indian River,Undetermined,,River,Water Feature,RIV,0c840f6e849c20c399a294c1d7989ff3,59.0455555,-113.1611111,116-19-W4,Alberta,250000,1944-07-12,Alberta Culture and Tourism
IAEAP,Beaver Lake,Undetermined,,Lake,Water Feature,LAKE,0c841114849c20c38fec3d0d5ea40ab8,52.0063889,-114.7880556,16-35-6-W5,Alberta,250000,1976-09-29,Alberta Culture and Tourism
IAEAR,Beaver Lake,Undetermined,,Lake,Water Feature,LAKE,0c841157849c20c3fd59ef26ee00232e,54.7058334,-111.8163889,"66-12,13-W4",Alberta,1000000,1945-07-28,Alberta Culture and Tourism
IAEAQ,Beaver Lake,Undetermined,,Lake,Water Feature,LAKE,0c84104b849c20c3caf5557f8c08f2d4,52.8675000,-117.7247222,"44,45-26,27-W5",Alberta,50000,1947-06-03,Alberta Culture and Tourism
IAEAM,Beaver Lake,Undetermined,,Hamlet,Populated Place,UNP,0c840f2d849c20c3b767ce03b77ab65c,54.7602778,-111.9097222,32-66-13-W4,Alberta,250000,1974-03-25,Alberta Culture and Tourism
IASYX,Beaver Lake,Undetermined,,Lake,Water Feature,LAKE,0cb061d4849c20c3fe83b4ba4a9ccf4a,56.9775000,-111.5961111,18-92-10-W4,Alberta,50000,1992-01-22,Alberta Culture and Tourism
IAUDN,Beaver Lake 131,Undetermined,,Indian Reserve,Administrative Area,IR,05a1cea3bbe311d892e2080020a0f4c9,54.6686111,-111.8713889,34-65-13-W4,Alberta,250000,1972-06-01,Indigenous and Northern Affairs Canada
IAEAW,Beaver Mines,Undetermined,,Locality,Populated Place,UNP,0c8411b0849c20c30d63cc3d67a77bbf,49.4566667,-114.1972222,10-6-2-W5,Alberta,250000,1941-08-14,Alberta Culture and Tourism
IAEAX,Beaver Mines Creek,Undetermined,,Creek,Water Feature,RIV,0c8412f0849c20c3220e63a0b049c503,49.4838889,-114.1430556,24-6-2-W5,Alberta,250000,1941-08-14,Alberta Culture and Tourism
IAEAY,Beaver Mines Lake,Undetermined,,Lake,Water Feature,LAKE,0c8412ae849c20c320d87755b54fe614,49.3727777,-114.2969444,5-3-W5,Alberta,250000,1959-08-06,Alberta Culture and Tourism
IAUCL,Beaver Ranch 163,Undetermined,,Indian Reserve,Administrative Area,IR,048b2e67bbe311d892e2080020a0f4c9,58.4358333,-115.7425000,"10,109,11",Alberta,50000,1972-06-01,Indigenous and Northern Affairs Canada
IZAAB,Beaver Ranch 163a,Undetermined,,Indian Reserve,Administrative Area,IR,6584e5b9ffb311dda89a080020a0f4c9,58.4644644,-115.7172773,,Alberta,50000,2000-12-14,Indigenous and Northern Affairs Canada
IZAAC,Beaver Ranch 163b,Undetermined,,Indian Reserve,Administrative Area,IR,8a12809bffb311dda89a080020a0f4c9,58.5258813,-115.7916617,,Alberta,50000,2000-12-14,Indigenous and Northern Affairs Canada
IAEAZ,Beaver Ranch Creek,Undetermined,,Creek,Water Feature,RIV,0c841330849c20c35119c16a9efbe875,58.4397222,-115.5744444,109-10-W5,Alberta,250000,1944-07-12,Alberta Culture and Tourism
IAEBC,Beaver River,Undetermined,,River,Water Feature,RIV,4e12a52aba3411d892e2080020a0f4c9,54.2722222,-110.0000000,61-1-W4,Alberta,5000000,1945-07-28,Alberta Culture and Tourism
IAEBD,Beaver River,Undetermined,,River,Water Feature,RIV,0c8413bd849c20c32da910ac2f0e59fe,57.1202778,-111.5997222,"93,94-10-W4",Alberta,5000000,1944-12-09,Alberta Culture and Tourism
IAEBB,Beaver River,Undetermined,,Locality,Populated Place,UNP,0c84137d849c20c3f7cc34e5cd42773d,54.3700000,-110.2661111,17-62-2-W4,Alberta,250000,1950-07-06,Alberta Culture and Tourism
IADZY,Beaverdam,Undetermined,,Locality,Populated Place,UNP,0c840bd5849c20c3c9a4ac141922f2a2,54.2013889,-110.3080556,24-60-3-W4,Alberta,250000,1950-07-06,Alberta Culture and Tourism
IAEAD,Beaverdam Creek,Undetermined,,Creek,Water Feature,RIV,0c840d52849c20c3e299cbf77aaae6f5,54.1322222,-119.2938889,59-9-W6,Alberta,250000,1950-05-04,Alberta Culture and Tourism
IAQSF,Beaverdam Creek,Undetermined,,Creek,Water Feature,RIV,6bfeae4bd05511d892e2080020a0f4c9,51.5569445,-114.3286111,11-30-3-W5,Alberta,250000,1983-10-20,Alberta Culture and Tourism
IAEAB,Beaverdam Creek,Undetermined,,Creek,Water Feature,RIV,0c840cb7849c20c30ccff48c483bfae9,53.1297223,-117.1016667,11-48-22-W5,Alberta,250000,1944-11-29,Alberta Culture and Tourism
IADZZ,Beaverdam Creek,Undetermined,,Creek,Water Feature,RIV,0c840b94849c20c3f7f360570dbb2b01,49.8855556,-114.2533333,11-2-W5,Alberta,50000,1941-12-17,Alberta Culture and Tourism
IAEAC,Beaverdam Creek,Undetermined,,Creek,Water Feature,RIV,0c840c16849c20c3ceb26db6a6523bb8,53.5711111,-119.8030556,,Alberta,250000,1925-01-13,Alberta Culture and Tourism
IAEAF,Beaverdam Lake,Undetermined,,Lake,Water Feature,LAKE,0c840de8849c20c3bfbf9b89e15d4d32,49.0816667,-113.6013889,"1,2-27,28-W4",Alberta,250000,1942-11-03,Alberta Culture and Tourism
IAAUK,Beaverdam Pass,Undetermined,,Pass,Terrain Feature,VALL,76c2e7d6ba3411d892e2080020a0f4c9,53.5766667,-119.8888889,17-53-13-W6,Alberta,250000,1925-01-13,Alberta Culture and Tourism
IAEAH,Beaverhill,Undetermined,,Locality,Populated Place,UNP,0c840e75849c20c3d62c43e7fb21f16b,53.8038889,-112.8627778,35-55-20-W4,Alberta,250000,1950-05-02,Alberta Culture and Tourism
IAEAI,Beaverhill Creek,Undetermined,,Creek,Water Feature,RIV,0c840e34849c20c3d1954e391dbb6917,53.8983333,-112.9500000,5-57-20-W4,Alberta,1000000,1950-05-02,Alberta Culture and Tourism
IAEAJ,Beaverhill Lake,Undetermined,,Lake,Water Feature,LAKE,0c840eec849c20c3c5be01338d2e0729,53.4525000,-112.5355556,"51,52-17,18-W4",Alberta,2000000,1950-05-02,Alberta Culture and Tourism
IAEAU,Beaverlodge,Undetermined,,Town,Populated Place,TOWN,7b47f382d05511d892e2080020a0f4c9,55.2091667,-119.4288889,2-72-10-W6,Alberta,1000000,1995-01-01,Alberta Culture and Tourism
IAEAV,Beaverlodge River,Undetermined,,River,Water Feature,RIV,5bf3f5f6ba3411d892e2080020a0f4c9,55.0547222,-119.3608333,70-9-W6,Alberta,1000000,1951-11-01,Alberta Culture and Tourism
IAJAB,Beaverskin Creek,Undetermined,,Creek,Water Feature,RIV,64b726fcba3411d892e2080020a0f4c9,58.1500000,-120.0000000,105-13-W6,Alberta,250000,1952-06-06,Alberta Culture and Tourism
IAEBG,Beavertail Creek,Undetermined,,Creek,Water Feature,RIV,76e22fa8ba3411d892e2080020a0f4c9,55.3341666,-119.6125000,22-73-11-W6,Alberta,250000,1947-10-07,Alberta Culture and Tourism
IAEBH,Beazer,Undetermined,,Locality,Populated Place,UNP,0c841410849c20c3bd4d67f1155e087f,49.1150000,-113.4836111,13-2-27-W4,Alberta,250000,1942-09-07,Alberta Culture and Tourism
IAEBJ,Beazer Ridge,Undetermined,,Ridge,Terrain Feature,MTN,0c841520849c20c3bebda2ac07009f52,49.1238889,-113.4961111,13-2-27-W4,Alberta,250000,1942-09-07,Alberta Culture and Tourism
IAEBK,Becker Coulee,Undetermined,,Coulee,Terrain Feature,VALL,0c84146f849c20c369b6113d85f5c301,49.4916667,-111.4375000,28-6-11-W4,Alberta,250000,1967-01-05,Alberta Culture and Tourism
IAEBL,Beddington,Undetermined,,Locality,Populated Place,UNP,0c841602849c20c33b26dd7c1ee30009,51.1522223,-114.0400000,23-25-1-W5,Alberta,250000,1956-11-02,Alberta Culture and Tourism
IAEBN,Beddington Creek,Undetermined,,Creek,Water Feature,RIV,5342013ac6be11d892e2080020a0f4c9,51.1416667,-114.0408333,23-25-1-W5,Alberta,50000,1976-06-22,Alberta Culture and Tourism
IATLX,Beddington Heights,Undetermined,,Urban Community,Populated Place,UNP,537ac549bbe111d892e2080020a0f4c9,51.1291670,-114.0791700,Calgary,Alberta,50000,,Alberta Culture and Tourism
IAEBP,Bede Creek,Undetermined,,Creek,Water Feature,RIV,0cff92dc849c20c306a727f6397fc284,58.3908333,-116.9075000,108-18-W5,Alberta,1000000,1944-11-06,Alberta Culture and Tourism
IAEBS,Bedson Ridge,Undetermined,,Ridge,Terrain Feature,MTN,0c841645849c20c3cc1fbe772efde887,53.2800000,-117.9388889,49-27-W5,Alberta,250000,1956-08-02,Alberta Culture and Tourism
IATBW,Beebe Flats,Undetermined,,Flat,Terrain Feature,BCH,989fa6fdc6cb11d892e2080020a0f4c9,49.0319000,-113.6889000,16-1-27W4,Alberta,50000,1998-11-18,Alberta Culture and Tourism
IAEBV,Beehive Creek,Undetermined,,Creek,Water Feature,RIV,0c8416cf849c20c34ed757f90ee0a547,50.0566667,-114.5919444,13-5-W5,Alberta,50000,1960-03-03,Alberta Culture and Tourism
IAEBW,Beehive Mountain,Undetermined,,Mountain,Terrain Feature,MTN,771dd91cba3411d892e2080020a0f4c9,50.0655555,-114.6622222,13-5-W5,Alberta,250000,1924-03-31,Alberta Culture and Tourism
